timestamp,stateEstimate.x,stateEstimate.y,stateEstimate.z,stateEstimate.vx,stateEstimate.vy,stateEstimate.vz,stateEstimate.roll,stateEstimate.pitch,stateEstimate.yaw,gyro.x,gyro.y,gyro.z,acc.x,acc.y,acc.z,baro.asl,lighthouse.x,lighthouse.y,lighthouse.z
212910.904,0.002994764829054475,0.000619021593593061,-0.0016200083773583174,-0.0003214459284208715,0.0010027698008343577,0.0026223978493362665,0.816767692565918,-0.06208522245287895,12.303466796875,0.046340636909008026,-0.038334012031555176,0.03341859206557274,-0.0017909611342474818,0.01395737286657095,1.001368761062622,104.97539520263672,0.0,0.0,0.0
212914.847,0.0029966644942760468,0.0005397304776124656,-0.0016855911817401648,-0.00029015608015470207,0.0005546301836147904,0.0023590009659528732,0.8169615864753723,-0.06119468808174133,12.290247917175293,-0.10842640697956085,0.025921067222952843,0.07909058779478073,-0.0008733321446925402,0.015314091928303242,1.001312017440796,104.97539520263672,0.0,0.0,0.0
212918.794,0.003001472679898143,0.0005147920455783606,-0.001675898558460176,-0.00023456302005797625,0.00042100888094864786,0.00241104350425303,0.8181949257850647,-0.061049748212099075,12.34864330291748,0.1005689725279808,-0.1639890968799591,0.04234733805060387,-0.0014570619678124785,0.016327565535902977,0.9999176859855652,104.97539520263672,0.0,0.0,0.0
212922.795,0.003001472679898143,0.0005147920455783606,-0.001675898558460176,-0.00023456302005797625,0.00042100888094864786,0.00241104350425303,0.8181949257850647,-0.061049748212099075,12.34864330291748,0.13301268219947815,-0.03673788905143738,0.08201394230127335,-0.002067730063572526,0.014990933239459991,0.9994763731956482,105.04647827148438,0.0,0.0,0.0
212926.708,0.0029988049063831568,0.0005196484853513539,-0.0016515881288796663,-0.00029886874835938215,0.0005503784632310271,0.0024513970129191875,0.8175952434539795,-0.060423724353313446,12.336992263793945,0.19463470578193665,-0.12914970517158508,0.04028598219156265,-0.0015323455445468426,0.013939178548753262,0.9998607635498047,105.04647827148438,0.0,0.0,0.0
212930.676,0.0030392997432500124,0.0004887952236458659,-0.0016693288926035166,-6.073399345041253e-05,0.0003648119163699448,0.0023656426928937435,0.8196506500244141,-0.062270309776067734,12.330316543579102,0.11489808559417725,0.05933185666799545,-0.1721843183040619,-0.0020704998169094324,0.013693839311599731,1.0007635354995728,105.04647827148438,0.0,0.0,0.0
212934.619,0.0030383344274014235,0.0004921883228234947,-0.00164550612680614,-0.000132247107103467,0.00031387124909088016,0.0023992883507162333,0.8204355239868164,-0.0619196891784668,12.317607879638672,-0.0028366579208523035,-0.21799390017986298,-0.12167782336473465,-0.0036135658156126738,0.01444301102310419,1.0015467405319214,105.04647827148438,0.0,0.0,0.0
212938.567,0.003056589048355818,0.0004933663294650614,-0.0016634888015687466,-3.9891183405416086e-05,0.00029831851134076715,0.002304877620190382,0.8208398222923279,-0.06218624860048294,12.381383895874023,0.00980805978178978,-0.3403106927871704,0.11664754152297974,-0.003838840639218688,0.014625590294599533,1.0016629695892334,105.04647827148438,0.0,0.0,0.0
212942.562,0.003056589048355818,0.0004933663294650614,-0.0016634888015687466,-3.9891183405416086e-05,0.00029831851134076715,0.002304877620190382,0.8208398222923279,-0.06218624860048294,12.381383895874023,0.02589280717074871,0.043996576219797134,0.1018456444144249,-0.002141470555216074,0.01457908283919096,1.0015373229980469,105.05741882324219,0.0,0.0,0.0
212946.475,0.0030550765804946423,0.0004961925442330539,-0.001639602705836296,-0.00026257906574755907,0.00026701806928031147,0.0024727177806198597,0.820110023021698,-0.06013016775250435,12.369359016418457,0.11555393040180206,-0.12219928205013275,0.03652990236878395,-0.0015535802813246846,0.01566862128674984,1.0004253387451172,105.05741882324219,0.0,0.0,0.0
212950.455,0.003038219641894102,0.0004565223935060203,-0.0016896688612177968,-0.0003305984428152442,7.215763616841286e-05,0.0021930935326963663,0.8215502500534058,-0.05939260125160217,12.358575820922852,0.0005569259519688785,-0.2800006866455078,0.28592565655708313,-0.0021178186871111393,0.016413403674960136,1.0001558065414429,105.05741882324219,0.0,0.0,0.0
212954.378,0.003029412589967251,0.00045209299423731863,-0.0016832900000736117,-0.000358415039954707,4.95726999361068e-05,0.00222710776142776,0.8216941952705383,-0.058738354593515396,12.407060623168945,0.15716733038425446,-0.15219838917255402,0.0315549336373806,-0.0020159415435045958,0.016141513362526894,1.000267744064331,105.05741882324219,0.0,0.0,0.0
212958.328,0.003025264013558626,0.00045324614620767534,-0.0016607397701591253,-0.00047127812285907567,0.00018119018932338804,0.0022833433467894793,0.8215092420578003,-0.05716248229146004,12.395926475524902,0.017027035355567932,-0.296380877494812,0.19419516623020172,-0.002048153430223465,0.015487179160118103,1.0006344318389893,105.05741882324219,0.0,0.0,0.0
212962.33,0.003025264013558626,0.00045324614620767534,-0.0016607397701591253,-0.00047127812285907567,0.00018119018932338804,0.0022833433467894793,0.8215092420578003,-0.05716248229146004,12.395926475524902,-0.16907531023025513,-0.472622275352478,0.22070880234241486,-0.0012974088313058019,0.014984872192144394,1.0011519193649292,105.041015625,0.0,0.0,0.0
212966.241,0.0030200162436813116,0.00045552843948826194,-0.001637528999708593,-0.0005782086518593132,0.0002754246525000781,0.0023591851349920034,0.8207101225852966,-0.05402388423681259,12.3850679397583,-0.04341872036457062,-0.28680261969566345,0.0964721143245697,-0.00017925415886566043,0.015037530101835728,1.0009080171585083,105.041015625,0.0,0.0,0.0
212970.222,0.003052561776712537,0.00043060840107500553,-0.001657625543884933,-0.00046175875468179584,0.00011689114035107195,0.0022377900313585997,0.8223085999488831,-0.054887399077415466,12.378692626953125,-0.020947974175214767,-0.26866087317466736,0.1361427754163742,-0.000124286423670128,0.015506348572671413,1.0006169080734253,105.041015625,0.0,0.0,0.0
212974.146,0.003039451315999031,0.00042523175943642855,-0.0016484485240653157,-0.0005003237747587264,9.03698819456622e-05,0.002291309181600809,0.8224525451660156,-0.05413715913891792,12.426186561584473,0.3457811772823334,-0.1495443731546402,-0.36430951952934265,-0.0006829715566709638,0.016263116151094437,1.0003159046173096,105.041015625,0.0,0.0,0.0
212978.11,0.0030341711826622486,0.0004268570919521153,-0.001622701995074749,-0.00045968039194121957,0.00020527507876977324,0.0023902864195406437,0.8216173648834229,-0.051009248942136765,12.414341926574707,-0.0867474377155304,0.0708472728729248,-0.15139025449752808,-0.0009934821864590049,0.017515212297439575,1.0001709461212158,105.041015625,0.0,0.0,0.0
212982.11,0.0030341711826622486,0.0004268570919521153,-0.001622701995074749,-0.00045968039194121957,0.00020527507876977324,0.0023902864195406437,0.8216173648834229,-0.051009248942136765,12.414341926574707,0.007011973764747381,-0.4438844621181488,-0.18305031955242157,-0.0012790156761184335,0.017705099657177925,0.9997808337211609,105.05194854736328,0.0,0.0,0.0
212986.01,0.0030291900038719177,0.0004303182358853519,-0.001598696457222104,-0.0005364511744119227,0.00048710525152273476,0.0024112046230584383,0.8212354183197021,-0.04971189796924591,12.399857521057129,0.046127088367938995,-0.0532192662358284,-0.1378237009048462,-0.002223205752670765,0.017458109185099602,1.000114917755127,105.05194854736328,0.0,0.0,0.0
212989.991,0.0030534735415130854,0.0004088606801815331,-0.0016177654033526778,-0.0004532105231191963,0.00034541625063866377,0.002286330796778202,0.8226196765899658,-0.05030396208167076,12.393041610717773,0.047580987215042114,-0.010002822615206242,0.022124458104372025,-0.00414562551304698,0.01672450266778469,1.0004748106002808,105.05194854736328,0.0,0.0,0.0
212993.916,0.003074299544095993,0.0004331872914917767,-0.0016529448330402374,-0.0003873553650919348,0.0004654429212678224,0.0020637172274291515,0.821835994720459,-0.050630323588848114,12.44393253326416,0.009772690944373608,-0.02738673985004425,-0.0401778481900692,-0.0035901188384741545,0.015203258022665977,1.0012028217315674,105.05194854736328,0.0,0.0,0.0
212997.875,0.0030690517742186785,0.00043881675810553133,-0.0016320516588166356,-0.0006620414787903428,0.0006606249953620136,0.002115307841449976,0.8214558959007263,-0.05005795508623123,12.43093490600586,0.2047480344772339,0.016232021152973175,-0.10286501795053482,-0.0025897016748785973,0.013931882567703724,1.0004340410232544,105.05194854736328,0.0,0.0,0.0
213001.88,0.0030690517742186785,0.00043881675810553133,-0.0016320516588166356,-0.0006620414787903428,0.0006606249953620136,0.002115307841449976,0.8214558959007263,-0.05005795508623123,12.43093490600586,0.07455600798130035,-0.10010188072919846,-0.10821603983640671,-0.002664377447217703,0.01360545214265585,0.9997082352638245,105.04647827148438,0.0,0.0,0.0
213005.781,0.003061530413106084,0.0004450895939953625,-0.0016106581315398216,-0.0008421018137596548,0.0005941549316048622,0.0021638041362166405,0.8217668533325195,-0.0497003011405468,12.417622566223145,0.1780819296836853,0.09826824069023132,0.04430920630693436,-0.002664596540853381,0.012982618063688278,0.9992950558662415,105.04647827148438,0.0,0.0,0.0
213009.758,0.0030750196892768145,0.00042399970698170364,-0.0016327211633324623,-0.0007955579785630107,0.0004557993379421532,0.0020117161329835653,0.8230310678482056,-0.050002846866846085,12.405694007873535,-0.23482820391654968,0.1675707995891571,0.17802168428897858,-0.003023990197107196,0.013551334850490093,0.9986885786056519,105.04647827148438,0.0,0.0,0.0
213013.688,0.003049261402338743,0.00046467306674458086,-0.0016623978735879064,-0.000846822396852076,0.000704539124853909,0.0018155011348426342,0.820895254611969,-0.04956941306591034,12.44787311553955,-0.1795467883348465,-0.15341657400131226,-0.020148547366261482,-0.0028343917801976204,0.014500920660793781,0.9985710978507996,105.04647827148438,0.0,0.0,0.0
213017.642,0.003039940958842635,0.0004710898210760206,-0.0016447091475129128,-0.0010171261383220553,0.0005790528957732022,0.0017226345371454954,0.8194591403007507,-0.050397612154483795,12.436112403869629,0.006945020519196987,0.18452996015548706,0.2648187577724457,-0.003025608602911234,0.014877239242196083,0.9994111657142639,105.04647827148438,0.0,0.0,0.0
213021.652,0.003039940958842635,0.0004710898210760206,-0.0016447091475129128,-0.0010171261383220553,0.0005790528957732022,0.0017226345371454954,0.8194591403007507,-0.050397612154483795,12.436112403869629,0.21900591254234314,-0.045347634702920914,0.08876802772283554,-0.003039461327716708,0.014841081574559212,1.0003780126571655,104.9917984008789,0.0,0.0,0.0
213025.55,0.0030287131667137146,0.0004768958024214953,-0.001627660822123289,-0.001228312379680574,0.0005824299296364188,0.0016874453285709023,0.8189906477928162,-0.05068649351596832,12.425149917602539,0.1267513483762741,0.15983794629573822,-0.20635390281677246,-0.0022701688576489687,0.015073600225150585,1.001022219657898,104.9917984008789,0.0,0.0,0.0
213029.53,0.0030287131667137146,0.0004768958024214953,-0.001627660822123289,-0.001228312379680574,0.0005824299296364188,0.0016874453285709023,0.8189906477928162,-0.05068649351596832,12.425149917602539,-0.3562467396259308,0.12783700227737427,0.021710410714149475,-0.0020847111009061337,0.01396158616989851,1.00163996219635,104.9917984008789,0.0,0.0,0.0
213033.459,0.0030287131667137146,0.0004768958024214953,-0.001627660822123289,-0.001228312379680574,0.0005824299296364188,0.0016874453285709023,0.8189906477928162,-0.05068649351596832,12.425149917602539,-0.09320835769176483,0.08622625470161438,0.15537768602371216,-0.0026442711241543293,0.01277067419141531,1.0002813339233398,104.9917984008789,0.0,0.0,0.0
213037.411,0.0030157642904669046,0.00048256231821142137,-0.0016101483488455415,-0.001361345057375729,0.0005511981435120106,0.0018154584104195237,0.8170437812805176,-0.05191231146454811,12.412044525146484,-0.04408089444041252,-0.10177014768123627,0.013004553504288197,-0.002852523932233453,0.013287062756717205,0.9987287521362305,104.9917984008789,0.0,0.0,0.0
213041.415,0.0030157642904669046,0.00048256231821142137,-0.0016101483488455415,-0.001361345057375729,0.0005511981435120106,0.0018154584104195237,0.8170437812805176,-0.05191231146454811,12.412044525146484,0.33450227975845337,0.025970468297600746,0.21635031700134277,-0.0035208670888096094,0.014386584050953388,0.9985679984092712,104.98633575439453,0.0,0.0,0.0
213045.323,0.0030011991038918495,0.0004874973092228174,-0.0015924412291496992,-0.001551615772768855,0.0004361584724392742,0.0017263618065044284,0.8170541524887085,-0.05174580216407776,12.400907516479492,0.16584250330924988,-0.0769152119755745,0.2376735359430313,-0.0035904445685446262,0.016041554510593414,0.9984984993934631,104.98633575439453,0.0,0.0,0.0
213049.289,0.0030011991038918495,0.0004874973092228174,-0.0015924412291496992,-0.001551615772768855,0.0004361584724392742,0.0017263618065044284,0.8170541524887085,-0.05174580216407776,12.400907516479492,0.03425595164299011,-0.02179287001490593,-0.15453100204467773,-0.003022407880052924,0.016694875434041023,0.9992538690567017,104.98633575439453,0.0,0.0,0.0
213053.223,0.0030011991038918495,0.0004874973092228174,-0.0015924412291496992,-0.001551615772768855,0.0004361584724392742,0.0017263618065044284,0.8170541524887085,-0.05174580216407776,12.400907516479492,-0.2707940936088562,0.02018330805003643,0.14082439243793488,-0.002775385044515133,0.01670248620212078,1.0013071298599243,104.98633575439453,0.0,0.0,0.0
213057.184,0.002984341001138091,0.0004926002584397793,-0.0015755206113681197,-0.0018198720645159483,0.0005848512519150972,0.0016581470845267177,0.8168669939041138,-0.0515855997800827,12.389137268066406,0.10477276146411896,0.029964270070195198,0.061043426394462585,-0.0019018870079889894,0.016824914142489433,1.0017775297164917,104.98633575439453,0.0,0.0,0.0
213061.188,0.002984341001138091,0.0004926002584397793,-0.0015755206113681197,-0.0018198720645159483,0.0005848512519150972,0.0016581470845267177,0.8168669939041138,-0.0515855997800827,12.389137268066406,-0.0985662192106247,-0.1650845855474472,0.0146384472027421,-0.001102661481127143,0.015627307817339897,1.00084388256073,104.92071533203125,0.0,0.0,0.0
213065.095,0.002965473337098956,0.0004993638722226024,-0.001558191142976284,-0.001953504513949156,0.0007683188305236399,0.0018081445014104247,0.8154893517494202,-0.051219720393419266,12.377572059631348,0.057062163949012756,-0.236830934882164,-0.01928003691136837,-0.0016017130110412836,0.01554610300809145,1.0002415180206299,104.92071533203125,0.0,0.0,0.0
213069.062,0.002965473337098956,0.0004993638722226024,-0.001558191142976284,-0.001953504513949156,0.0007683188305236399,0.0018081445014104247,0.8154893517494202,-0.051219720393419266,12.377572059631348,0.19053417444229126,-0.08305764943361282,-0.03904299437999725,-0.0024652432184666395,0.015318989753723145,1.0002814531326294,104.92071533203125,0.0,0.0,0.0
213072.991,0.002965473337098956,0.0004993638722226024,-0.001558191142976284,-0.001953504513949156,0.0007683188305236399,0.0018081445014104247,0.8154893517494202,-0.051219720393419266,12.377572059631348,0.028143471106886864,0.00800101738423109,0.06351043283939362,-0.002740085357800126,0.015149465762078762,0.9997079372406006,104.92071533203125,0.0,0.0,0.0
213076.952,0.0029452480375766754,0.0005074685323052108,-0.0015399653930217028,-0.0020913821645081043,0.0008530932245776057,0.0018373901257291436,0.815626323223114,-0.04960905387997627,12.365083694458008,-0.1353723257780075,0.20921428501605988,-0.21102634072303772,-0.002202072646468878,0.015526599250733852,1.0013792514801025,104.92071533203125,0.0,0.0,0.0
213080.954,0.0029452480375766754,0.0005074685323052108,-0.0015399653930217028,-0.0020913821645081043,0.0008530932245776057,0.0018373901257291436,0.815626323223114,-0.04960905387997627,12.365083694458008,-0.1293352246284485,-0.2636719048023224,0.0033614940475672483,-0.0022862721234560013,0.014865158125758171,1.0021766424179077,104.95899200439453,0.0,0.0,0.0
213084.861,0.0029235179536044598,0.0005163037567399442,-0.0015209189150482416,-0.0022544534876942635,0.000914473261218518,0.0019722681026905775,0.8138974905014038,-0.049865372478961945,12.352148056030273,0.029022015631198883,0.010365144349634647,-0.13617989420890808,-0.0030121400486677885,0.01537832710891962,1.0021469593048096,104.95899200439453,0.0,0.0,0.0
213088.838,0.0029235179536044598,0.0005163037567399442,-0.0015209189150482416,-0.0022544534876942635,0.000914473261218518,0.0019722681026905775,0.8138974905014038,-0.049865372478961945,12.352148056030273,0.2780568599700928,-0.11577030271291733,-0.1475488543510437,-0.003481771796941757,0.016679037362337112,1.0014277696609497,104.95899200439453,0.0,0.0,0.0
213092.762,0.0029235179536044598,0.0005163037567399442,-0.0015209189150482416,-0.0022544534876942635,0.000914473261218518,0.0019722681026905775,0.8138974905014038,-0.049865372478961945,12.352148056030273,0.1577741652727127,-0.05155380442738533,-0.14020194113254547,-0.003210682887583971,0.016367414966225624,1.0014790296554565,104.95899200439453,0.0,0.0,0.0
213096.722,0.0028996726032346487,0.0005260599427856505,-0.0015002547297626734,-0.0025143867824226618,0.0010373317636549473,0.0021609298419207335,0.8145871162414551,-0.0492650642991066,12.338594436645508,-0.09846577793359756,0.08981754630804062,-0.15072722733020782,-0.0031776423566043377,0.01689080148935318,1.0003613233566284,104.95899200439453,0.0,0.0,0.0
213100.723,0.0028996726032346487,0.0005260599427856505,-0.0015002547297626734,-0.0025143867824226618,0.0010373317636549473,0.0021609298419207335,0.8145871162414551,-0.0492650642991066,12.338594436645508,0.17292290925979614,-0.25705456733703613,0.09774667024612427,-0.002874186495319009,0.016733242198824883,1.0010592937469482,104.96993255615234,0.0,0.0,0.0
213104.63,0.0028732074424624443,0.0005373837775550783,-0.0014781653881072998,-0.0027783666737377644,0.001228067558258772,0.002257315441966057,0.8141771554946899,-0.048703789710998535,12.325662612915039,0.14261162281036377,-0.24908000230789185,0.1563098132610321,-0.0015205808449536562,0.015420074574649334,1.0015826225280762,104.96993255615234,0.0,0.0,0.0
213108.606,0.0028732074424624443,0.0005373837775550783,-0.0014781653881072998,-0.0027783666737377644,0.001228067558258772,0.002257315441966057,0.8141771554946899,-0.048703789710998535,12.325662612915039,-0.08357574790716171,-0.047933079302310944,0.18867889046669006,-0.0014317885506898165,0.01431665662676096,1.0021007061004639,104.96993255615234,0.0,0.0,0.0
213112.534,0.0028732074424624443,0.0005373837775550783,-0.0014781653881072998,-0.0027783666737377644,0.001228067558258772,0.002257315441966057,0.8141771554946899,-0.048703789710998535,12.325662612915039,0.1377127468585968,0.1650281399488449,0.0022688850294798613,-0.0017341820057481527,0.015234547667205334,1.0030828714370728,104.96993255615234,0.0,0.0,0.0
213116.493,0.0028449990786612034,0.0005499453982338309,-0.0014545645099133253,-0.002863031579181552,0.0012848993064835668,0.0024632259737700224,0.8139868974685669,-0.04757231846451759,12.314619064331055,-0.08476762473583221,-0.017870856449007988,0.21997037529945374,-0.0020222330931574106,0.016107706353068352,1.0023257732391357,104.96993255615234,0.0,0.0,0.0
213120.493,0.0028449990786612034,0.0005499453982338309,-0.0014545645099133253,-0.002863031579181552,0.0012848993064835668,0.0024632259737700224,0.8139868974685669,-0.04757231846451759,12.314619064331055,-0.12458713352680206,-0.26685279607772827,0.15211720764636993,-0.0021173013374209404,0.015923015773296356,0.999741792678833,104.98633575439453,0.0,0.0,0.0
213124.397,0.002815638668835163,0.000563453824725002,-0.0014290653634816408,-0.0030087558552622795,0.0014174665557220578,0.0026369988918304443,0.8127097487449646,-0.047034185379743576,12.303894996643066,-0.05860545486211777,-0.20486034452915192,-0.012641443870961666,-0.0012696738122031093,0.015003283508121967,0.9979278445243835,104.98633575439453,0.0,0.0,0.0
213128.37,0.002815638668835163,0.000563453824725002,-0.0014290653634816408,-0.0030087558552622795,0.0014174665557220578,0.0026369988918304443,0.8127097487449646,-0.047034185379743576,12.303894996643066,0.10441668331623077,-0.054587967693805695,-0.042461786419153214,-0.0016054962761700153,0.01496658194810152,0.9988735318183899,104.98633575439453,0.0,0.0,0.0
213132.301,0.002815638668835163,0.000563453824725002,-0.0014290653634816408,-0.0030087558552622795,0.0014174665557220578,0.0026369988918304443,0.8127097487449646,-0.047034185379743576,12.303894996643066,0.43680596351623535,-0.1614377498626709,-0.026138197630643845,-0.0021090623922646046,0.016409941017627716,1.0008529424667358,104.98633575439453,0.0,0.0,0.0
213136.266,0.002785090124234557,0.0005780502688139677,-0.0014032400213181973,-0.003100612200796604,0.0015025294851511717,0.0025284222792834044,0.8126663565635681,-0.04580915719270706,12.291328430175781,0.19906765222549438,-0.17814645171165466,0.39571240544319153,-0.0026011804584413767,0.01720469258725643,1.0009851455688477,104.98633575439453,0.0,0.0,0.0
213140.265,0.002785090124234557,0.0005780502688139677,-0.0014032400213181973,-0.003100612200796604,0.0015025294851511717,0.0025284222792834044,0.8126663565635681,-0.04580915719270706,12.291328430175781,-0.03358274698257446,0.04808969795703888,0.12029103934764862,-0.003077430184930563,0.016798973083496094,1.0004621744155884,104.98633575439453,0.0,0.0,0.0
213144.173,0.0027529047802090645,0.0005941784474998713,-0.0013774903491139412,-0.0033361183013767004,0.0017238454893231392,0.0026218555867671967,0.8135413527488708,-0.04473387449979782,12.281031608581543,0.13024801015853882,0.070000559091568,0.03607536852359772,-0.0033078002743422985,0.016309557482600212,0.9998501539230347,104.98633575439453,0.0,0.0,0.0
213148.145,0.0027529047802090645,0.0005941784474998713,-0.0013774903491139412,-0.0033361183013767004,0.0017238454893231392,0.0026218555867671967,0.8135413527488708,-0.04473387449979782,12.281031608581543,0.03401719406247139,0.412019819021225,0.04464854300022125,-0.0029608318582177162,0.016019830480217934,0.9996698498725891,104.98633575439453,0.0,0.0,0.0
213152.075,0.002879474079236388,0.0005944327567704022,-0.0014916739892214537,-0.0026341069024056196,0.001658763736486435,0.0020432111341506243,0.8154593110084534,-0.04949882626533508,12.365276336669922,0.35256412625312805,-0.3597114384174347,0.13192731142044067,-0.0019090203568339348,0.014403421431779861,0.9999769330024719,104.98633575439453,0.0,0.0,0.0
213156.033,0.002851937199011445,0.0006116379518061876,-0.0014712586998939514,-0.0028728777542710304,0.0017829247517511249,0.00204020319506526,0.8159152269363403,-0.05124373361468315,12.353463172912598,-0.17310473322868347,-0.12207532674074173,0.17406496405601501,-0.0009193154983222485,0.013747725635766983,0.998786211013794,104.98633575439453,0.0,0.0,0.0
213160.037,0.002851937199011445,0.0006116379518061876,-0.0014712586998939514,-0.0028728777542710304,0.0017829247517511249,0.00204020319506526,0.8159152269363403,-0.05124373361468315,12.353463172912598,0.39056870341300964,-0.06154663488268852,0.19407278299331665,-0.0007177348015829921,0.013841119594871998,0.997767984867096,105.041015625,0.0,0.0,0.0
213163.943,0.0028231595642864704,0.0006292892503552139,-0.001451439573429525,-0.002882277825847268,0.0017479908419772983,0.001924009877257049,0.8165367841720581,-0.04947724565863609,12.342928886413574,0.21870437264442444,-0.10441046953201294,-0.04762077331542969,-0.0016089525306597352,0.013697396963834763,0.9976100921630859,105.041015625,0.0,0.0,0.0
213167.914,0.002953876042738557,0.0005059498944319785,-0.001525170635432005,-0.00204561953432858,0.0010670385090634227,0.0015660625649616122,0.8233830332756042,-0.05504220351576805,12.334846496582031,-0.15762384235858917,-0.05626581236720085,-0.2278871089220047,-0.002400038531050086,0.014462118968367577,0.9986619353294373,105.041015625,0.0,0.0,0.0
213171.842,0.0029915734194219112,0.0005703180795535445,-0.0016155861085280776,-0.0018768997397273779,0.0013742439914494753,0.001111598452553153,0.8214128613471985,-0.05639734864234924,12.38832950592041,0.07432375848293304,-0.3579924702644348,0.17842943966388702,-0.0030456078238785267,0.01442912220954895,0.9996830224990845,105.041015625,0.0,0.0,0.0
213175.804,0.0029722931794822216,0.0005838424549438059,-0.0016052389983087778,-0.0019788688514381647,0.0013310707872733474,0.0009581883205100894,0.8211168050765991,-0.05519730597734451,12.375163078308105,-0.007659916765987873,0.020475734025239944,-0.20045682787895203,-0.00234751938842237,0.014724751003086567,1.0004242658615112,105.041015625,0.0,0.0,0.0
213179.807,0.0029722931794822216,0.0005838424549438059,-0.0016052389983087778,-0.0019788688514381647,0.0013310707872733474,0.0009581883205100894,0.8211168050765991,-0.05519730597734451,12.375163078308105,0.1430278718471527,-0.23459921777248383,0.18433232605457306,-0.0017388379201292992,0.015683690086007118,1.0010920763015747,104.92071533203125,0.0,0.0,0.0
213183.708,0.0029517896473407745,0.0005973247461952269,-0.001595361391082406,-0.00212156237103045,0.0013658555690199137,0.001017722999677062,0.8209419250488281,-0.05355583876371384,12.363067626953125,-0.036730293184518814,-0.32278648018836975,0.2377534806728363,-0.00139039836358279,0.016361229121685028,1.0006834268569946,104.92071533203125,0.0,0.0,0.0
213187.687,0.0029545496217906475,0.0005068074096925557,-0.0016916776075959206,-0.0020111585035920143,0.0009089814266189933,0.0005523129366338253,0.8246670961380005,-0.05386558547616005,12.35216999053955,0.17677485942840576,-0.31108540296554565,-0.16561058163642883,-0.0015372231137007475,0.017380859702825546,1.0007768869400024,104.92071533203125,0.0,0.0,0.0
213191.612,0.002961604157462716,0.0005405449774116278,-0.001727695344015956,-0.0019828530494123697,0.0010745879262685776,0.0003639222413767129,0.8234841823577881,-0.053923290222883224,12.403162002563477,-0.06215422973036766,-0.18810924887657166,0.07465683668851852,-0.0010812829714268446,0.017465967684984207,1.0021216869354248,104.92071533203125,0.0,0.0,0.0
213195.574,0.0029412691947072744,0.0005524610751308501,-0.0017235421109944582,-0.002083845203742385,0.0013090852880850434,0.00046708350419066846,0.8232172727584839,-0.050952523946762085,12.391183853149414,0.02743348851799965,-0.26041290163993835,0.13779771327972412,-0.0012136847944930196,0.015554466284811497,1.0026443004608154,104.92071533203125,0.0,0.0,0.0
213199.577,0.0029412691947072744,0.0005524610751308501,-0.0017235421109944582,-0.002083845203742385,0.0013090852880850434,0.00046708350419066846,0.8232172727584839,-0.050952523946762085,12.391183853149414,-0.19123277068138123,0.05639699846506119,-0.1987827867269516,-0.0010622451081871986,0.014129857532680035,1.001723051071167,104.90431213378906,0.0,0.0,0.0
213203.48,0.0029202080331742764,0.0005660586175508797,-0.001717706210911274,-0.0021280997898429632,0.0014108972391113639,0.0007004761719144881,0.8218017816543579,-0.049728553742170334,12.379074096679688,-0.019323255866765976,0.054653048515319824,0.053991399705410004,-0.000930534559302032,0.014579778537154198,1.0015203952789307,104.90431213378906,0.0,0.0,0.0
213207.449,0.0029891924932599068,0.0005337285110726953,-0.0017281725304201245,-0.0017324326327070594,0.0012006411561742425,0.0006458623101934791,0.8218017816543579,-0.049728553742170334,12.379074096679688,0.058291785418987274,-0.035017628222703934,0.24679353833198547,-0.001095269457437098,0.015108085237443447,1.0016920566558838,104.90431213378906,0.0,0.0,0.0
213211.385,0.0030169726815074682,0.0005201916792429984,-0.0017381255747750401,-0.0016097865300253034,0.001113562728278339,0.0005940512637607753,0.8227446675300598,-0.0501028411090374,12.435874938964844,0.20151330530643463,0.16270141303539276,-0.03358324244618416,-0.0015961925964802504,0.015677619725465775,1.0013055801391602,104.90431213378906,0.0,0.0,0.0
213215.343,0.0030007248278707266,0.000531548575963825,-0.0017313631251454353,-0.0016395197017118335,0.0011581829749047756,0.0007588283624500036,0.8221980929374695,-0.050504717975854874,12.424540519714355,0.05838679149746895,0.24748995900154114,0.007854757830500603,-0.001420867396518588,0.016307495534420013,1.0011729001998901,104.90431213378906,0.0,0.0,0.0
213219.341,0.0030007248278707266,0.000531548575963825,-0.0017313631251454353,-0.0016395197017118335,0.0011581829749047756,0.0007588283624500036,0.8221980929374695,-0.050504717975854874,12.424540519714355,0.34595516324043274,-0.28780677914619446,-0.09780111163854599,-4.143988189753145e-05,0.015661774203181267,1.0003752708435059,104.93711853027344,0.0,0.0,0.0
213223.248,0.0029840953648090363,0.0005438798107206821,-0.001723263063468039,-0.0016860886244103312,0.0013084332458674908,0.0008615682600066066,0.8232092261314392,-0.051008109003305435,12.411711692810059,0.06588469445705414,0.05217833071947098,-0.05021752789616585,0.0012367658782750368,0.014572175219655037,0.9999025464057922,104.93711853027344,0.0,0.0,0.0
213227.226,0.0029999571852385998,0.0005140246357768774,-0.001752721262164414,-0.0016011146362870932,0.0011417160276323557,0.0007010960252955556,0.8246702551841736,-0.05156487599015236,12.396554946899414,-0.04914061725139618,0.11210606247186661,-0.029772276058793068,0.0008931628544814885,0.015183552168309689,1.0002893209457397,104.93711853027344,0.0,0.0,0.0
213231.155,0.0030291483271867037,0.0005056050140410662,-0.0017642081947997212,-0.0014972429489716887,0.0010794750414788723,0.0006358121754601598,0.8253940939903259,-0.05179935321211815,12.456194877624512,-0.1495833545923233,-0.14510054886341095,0.08620139956474304,0.00010987694258801639,0.015479488298296928,1.0017398595809937,104.93711853027344,0.0,0.0,0.0
213235.113,0.003014979651197791,0.0005168731440789998,-0.001757640391588211,-0.001336258719675243,0.0011744556250050664,0.0006781139527447522,0.8246749043464661,-0.052140481770038605,12.44338607788086,-0.03477635234594345,-0.21473078429698944,0.3483324646949768,-0.0003262332174926996,0.01580209843814373,1.0015218257904053,104.93711853027344,0.0,0.0,0.0
213239.114,0.003014979651197791,0.0005168731440789998,-0.001757640391588211,-0.001336258719675243,0.0011744556250050664,0.0006781139527447522,0.8246749043464661,-0.052140481770038605,12.44338607788086,0.3590792417526245,-0.08618061989545822,0.06785215437412262,-0.0008783114026300609,0.01753055863082409,1.00100576877594,104.9917984008789,0.0,0.0,0.0
213243.017,0.0030016491655260324,0.000529574288520962,-0.0017500977264717221,-0.0013295405078679323,0.0013660733820870519,0.0008307849639095366,0.8245056867599487,-0.05054165795445442,12.432963371276855,0.2699413001537323,-0.17978163063526154,0.06504756212234497,-0.001075333566404879,0.018914388492703438,1.0010441541671753,104.9917984008789,0.0,0.0,0.0
213246.989,0.0030073688831180334,0.0004994056071154773,-0.0017837410559877753,-0.0012980358442291617,0.001197004341520369,0.0006327079609036446,0.8258842825889587,-0.050630584359169006,12.423315048217773,0.17715011537075043,-0.2891251742839813,0.09853552281856537,-0.0016716511454433203,0.018023544922471046,1.0014618635177612,104.9917984008789,0.0,0.0,0.0
213250.924,0.0030004598665982485,0.0004767341015394777,-0.0017617096891626716,-0.0013267530594021082,0.0010676021920517087,0.0007748602074570954,0.826841413974762,-0.04985012486577034,12.466493606567383,-0.023553505539894104,-0.016870371997356415,0.09397318214178085,-0.0019038323080167174,0.016354689374566078,1.000795602798462,104.9917984008789,0.0,0.0,0.0
213254.882,0.0029865240212529898,0.0004891329444944859,-0.001753300428390503,-0.0014601410366594791,0.0014124909648671746,0.0009073445689864457,0.8281117677688599,-0.04773634672164917,12.454925537109375,-0.11570130288600922,0.29060596227645874,0.0988285094499588,-0.001355180167593062,0.01509725209325552,1.0012444257736206,104.9917984008789,0.0,0.0,0.0
213258.889,0.0029865240212529898,0.0004891329444944859,-0.001753300428390503,-0.0014601410366594791,0.0014124909648671746,0.0009073445689864457,0.8281117677688599,-0.04773634672164917,12.454925537109375,-0.14940424263477325,0.17972084879875183,0.09989631175994873,-0.0013491591671481729,0.015063113532960415,1.001299262046814,105.00273895263672,0.0,0.0,0.0
213262.791,0.0029715190175920725,0.0005036148941144347,-0.001743614673614502,-0.0015405158046633005,0.0014842543751001358,0.0010301967849954963,0.8260766863822937,-0.049754705280065536,12.443448066711426,0.12920914590358734,-0.37137794494628906,0.18159079551696777,-0.0013329510111361742,0.014323418959975243,1.0018783807754517,105.00273895263672,0.0,0.0,0.0
213266.759,0.0029965308494865894,0.0004764170735143125,-0.0017695858841761947,-0.0014342855429276824,0.0013126869453117251,0.0008662361069582403,0.8276287317276001,-0.050410885363817215,12.434760093688965,0.0421556793153286,0.12709012627601624,0.1099100410938263,-0.0018769041635096073,0.013570545241236687,1.002286434173584,105.00273895263672,0.0,0.0,0.0
213270.693,0.0029859382193535566,0.0004965316038578749,-0.0017853091703727841,-0.0014610511716455221,0.001432180986739695,0.0007580911042168736,0.8266748785972595,-0.04999478533864021,12.480467796325684,0.04768066480755806,-0.22777043282985687,-0.06252192705869675,-0.0018050753278657794,0.01361258514225483,1.0022995471954346,105.00273895263672,0.0,0.0,0.0
213274.647,0.0029710135422647,0.0005105159943923354,-0.0017766555538401008,-0.0015236095059663057,0.001365041360259056,0.0009729770245030522,0.826424777507782,-0.04889488220214844,12.468982696533203,0.12214170396327972,-0.340880811214447,-0.16592064499855042,-0.0010880203917622566,0.01481876615434885,1.0002081394195557,105.00273895263672,0.0,0.0,0.0
213278.653,0.0029710135422647,0.0005105159943923354,-0.0017766555538401008,-0.0015236095059663057,0.001365041360259056,0.0009729770245030522,0.826424777507782,-0.04889488220214844,12.468982696533203,-0.17708095908164978,-0.039291225373744965,-0.13477952778339386,-0.0006877427222207189,0.01625685952603817,0.9984440207481384,104.8496322631836,0.0,0.0,0.0
213282.559,0.002955592470243573,0.0005244330386631191,-0.0017668158980086446,-0.0015602842904627323,0.001418720930814743,0.0009953364497050643,0.825677216053009,-0.046769317239522934,12.455224990844727,-0.18655800819396973,0.1632211059331894,-0.12882660329341888,0.00015763631381560117,0.015592805109918118,0.9975571632385254,104.8496322631836,0.0,0.0,0.0
213286.533,0.002955592470243573,0.0005244330386631191,-0.0017668158980086446,-0.0015602842904627323,0.001418720930814743,0.0009953364497050643,0.825677216053009,-0.046769317239522934,12.455224990844727,0.024677397683262825,-0.2670670449733734,0.22153080999851227,0.0005418940563686192,0.015542908571660519,0.9982352256774902,104.8496322631836,0.0,0.0,0.0
213290.474,0.002955592470243573,0.0005244330386631191,-0.0017668158980086446,-0.0015602842904627323,0.001418720930814743,0.0009953364497050643,0.825677216053009,-0.046769317239522934,12.455224990844727,-0.1003117710351944,-0.014447846449911594,0.18513724207878113,-0.0008642262546345592,0.015548479743301868,0.9992691278457642,104.8496322631836,0.0,0.0,0.0
213294.418,0.0029403273947536945,0.0005393060855567455,-0.0017577486578375101,-0.0014923819107934833,0.001556224888190627,0.00081849773414433,0.8240135312080383,-0.04639358073472977,12.44331169128418,0.0676514208316803,-0.23154564201831818,0.07010114192962646,-0.0011302214115858078,0.01527105737477541,1.0008474588394165,104.8496322631836,0.0,0.0,0.0
213298.423,0.0029403273947536945,0.0005393060855567455,-0.0017577486578375101,-0.0014923819107934833,0.001556224888190627,0.00081849773414433,0.8240135312080383,-0.04639358073472977,12.44331169128418,0.3251159191131592,-0.2410915046930313,0.019313964992761612,-0.0006439816788770258,0.013707726262509823,1.0021764039993286,104.83322143554688,0.0,0.0,0.0
213302.323,0.0029403273947536945,0.0005393060855567455,-0.0017577486578375101,-0.0014923819107934833,0.001556224888190627,0.00081849773414433,0.8240135312080383,-0.04639358073472977,12.44331169128418,0.06330034881830215,0.13412079215049744,-0.040527913719415665,0.00023867422714829445,0.013455589301884174,1.0030370950698853,104.83322143554688,0.0,0.0,0.0
213306.304,0.0030003415886312723,0.0005340721108950675,-0.001749252900481224,-0.0010978677310049534,0.0014109381008893251,0.0009220138308592141,0.8265717029571533,-0.04758329316973686,12.415934562683105,-0.0125671261921525,-0.1416943222284317,0.15816783905029297,-0.00024984352057799697,0.01341722160577774,1.0021973848342896,104.83322143554688,0.0,0.0,0.0
213310.241,0.0030032938811928034,0.000554119935259223,-0.0017727978993207216,-0.0010822148760780692,0.0015282732201740146,0.0007583348196931183,0.8257277011871338,-0.04751374572515488,12.459179878234863,-0.20042121410369873,0.2587810754776001,-0.08839020878076553,-0.0009991297265514731,0.014671914279460907,1.0016603469848633,104.83322143554688,0.0,0.0,0.0
213314.194,0.00299287517555058,0.0005690506077371538,-0.0017639604629948735,-0.001001198892481625,0.001458098297007382,0.0010095215402543545,0.824973464012146,-0.04764717072248459,12.447380065917969,-0.3238367438316345,0.2599179148674011,-0.13132184743881226,-0.0007579444791190326,0.015709813684225082,1.0008230209350586,104.83322143554688,0.0,0.0,0.0
213318.191,0.00299287517555058,0.0005690506077371538,-0.0017639604629948735,-0.001001198892481625,0.001458098297007382,0.0010095215402543545,0.824973464012146,-0.04764717072248459,12.447380065917969,-0.223169207572937,0.09457788616418839,0.0800691768527031,-0.001008100458420813,0.016497597098350525,1.0001778602600098,104.88243865966797,0.0,0.0,0.0
213322.095,0.00299287517555058,0.0005690506077371538,-0.0017639604629948735,-0.001001198892481625,0.001458098297007382,0.0010095215402543545,0.824973464012146,-0.04764717072248459,12.447380065917969,0.010597310028970242,-0.0074898782186210155,0.037291064858436584,-0.0016085697570815682,0.01637406088411808,1.0004186630249023,104.88243865966797,0.0,0.0,0.0
213326.065,0.0030046766623854637,0.0005511192721314728,-0.001787412678822875,-0.0008998082485049963,0.0013690231135115027,0.0008724699728190899,0.8234378099441528,-0.05076109245419502,12.41796588897705,0.10093481838703156,-0.04405808448791504,0.23391827940940857,-0.0018392420606687665,0.01588430255651474,0.9999374151229858,104.88243865966797,0.0,0.0,0.0
213330.007,0.0030046766623854637,0.0005511192721314728,-0.001787412678822875,-0.0008998082485049963,0.0013690231135115027,0.0008724699728190899,0.8234378099441528,-0.05076109245419502,12.41796588897705,-0.10942232608795166,-0.06049216911196709,-0.20863483846187592,-0.002752474742010236,0.01579408533871174,0.999875009059906,104.88243865966797,0.0,0.0,0.0
213333.952,0.002995051210746169,0.0005655402783304453,-0.0017785609234124422,-0.0010249561164528131,0.0015154110733419657,0.0008982550352811813,0.8229581117630005,-0.05049536004662514,12.406473159790039,-0.13848428428173065,-0.12378036975860596,-0.26036885380744934,-0.0031547225080430508,0.01614132523536682,1.0006389617919922,104.88243865966797,0.0,0.0,0.0
213337.966,0.002995051210746169,0.0005655402783304453,-0.0017785609234124422,-0.0010249561164528131,0.0015154110733419657,0.0008982550352811813,0.8229581117630005,-0.05049536004662514,12.406473159790039,0.09480492770671844,-0.17698730528354645,0.21133780479431152,-0.0025482014752924442,0.016002610325813293,1.0017662048339844,104.8605728149414,0.0,0.0,0.0
213341.87,0.002995051210746169,0.0005655402783304453,-0.0017785609234124422,-0.0010249561164528131,0.0015154110733419657,0.0008982550352811813,0.8229581117630005,-0.05049536004662514,12.406473159790039,0.27439698576927185,-0.13877013325691223,0.05237359553575516,-0.0017875408520922065,0.01592228189110756,1.001936674118042,104.8605728149414,0.0,0.0,0.0
213345.846,0.0030042799189686775,0.0005369567079469562,-0.0018184407381340861,-0.0010936949402093887,0.0013420743634924293,0.0006601322093047202,0.8240251541137695,-0.0501299686729908,12.384058952331543,0.33550605177879333,-0.34879937767982483,-0.16052475571632385,-0.0014421060914173722,0.01579243503510952,1.0012776851654053,104.8605728149414,0.0,0.0,0.0
213349.777,0.0029744186904281378,0.0005290064145810902,-0.0017942630220204592,-0.0012307555880397558,0.0013059177435934544,0.0008215634152293205,0.8240562081336975,-0.048490606248378754,12.44593620300293,-0.07397039234638214,0.09409672021865845,-0.1843089759349823,-0.0033685353118926287,0.01669171079993248,1.0003913640975952,104.8605728149414,0.0,0.0,0.0
213353.726,0.0029614525847136974,0.0005427231080830097,-0.0017852731980383396,-0.0013621423859149218,0.001437729224562645,0.000976797309704125,0.825687050819397,-0.04636638984084129,12.43295955657959,-0.09599430114030838,0.3574005663394928,-0.04279860481619835,-0.004190230742096901,0.015458814799785614,0.999682605266571,104.8605728149414,0.0,0.0,0.0
213357.735,0.0029614525847136974,0.0005427231080830097,-0.0017852731980383396,-0.0013621423859149218,0.001437729224562645,0.000976797309704125,0.825687050819397,-0.04636638984084129,12.43295955657959,0.08017664402723312,0.1384963095188141,0.014762192033231258,-0.0033134936820715666,0.014425665140151978,0.9990029335021973,104.8551025390625,0.0,0.0,0.0
213361.632,0.0029614525847136974,0.0005427231080830097,-0.0017852731980383396,-0.0013621423859149218,0.001437729224562645,0.000976797309704125,0.825687050819397,-0.04636638984084129,12.43295955657959,0.12046633660793304,0.1464039534330368,0.1307528018951416,-0.002835976891219616,0.013211080804467201,0.9985112547874451,104.8551025390625,0.0,0.0,0.0
213365.605,0.0029746696818619967,0.0005251402617432177,-0.0018067981582134962,-0.0014949127798900008,0.0012546319048851728,0.0007384073105640709,0.8264636397361755,-0.049886226654052734,12.409805297851562,-0.0638163760304451,0.09033418446779251,0.019570041447877884,-0.00296505237929523,0.01340408343821764,0.9985966682434082,104.8551025390625,0.0,0.0,0.0
213369.544,0.0029746696818619967,0.0005251402617432177,-0.0018067981582134962,-0.0014949127798900008,0.0012546319048851728,0.0007384073105640709,0.8264636397361755,-0.049886226654052734,12.409805297851562,-0.17679277062416077,0.00374832795932889,-0.18279534578323364,-0.0021578045561909676,0.014234703965485096,0.9994417428970337,104.8551025390625,0.0,0.0,0.0
213373.501,0.0029588742181658745,0.0005370389553718269,-0.00180000439286232,-0.0016639333916828036,0.0011254684068262577,0.000620707927737385,0.8256081342697144,-0.051118556410074234,12.397693634033203,0.11678393185138702,-0.24016761779785156,0.02766207419335842,-0.0018091251840814948,0.01490726973861456,0.999393105506897,104.8551025390625,0.0,0.0,0.0
213377.497,0.0029588742181658745,0.0005370389553718269,-0.00180000439286232,-0.0016639333916828036,0.0011254684068262577,0.000620707927737385,0.8256081342697144,-0.051118556410074234,12.397693634033203,0.20848330855369568,-0.4347842335700989,0.06908853352069855,-0.0020583125296980143,0.014674412086606026,1.0007877349853516,104.81681823730469,0.0,0.0,0.0
213381.405,0.0029588742181658745,0.0005370389553718269,-0.00180000439286232,-0.0016639333916828036,0.0011254684068262577,0.000620707927737385,0.8256081342697144,-0.051118556410074234,12.397693634033203,0.20938025414943695,-0.24365094304084778,-0.10721490532159805,-0.001646929420530796,0.014586585573852062,1.0027951002120972,104.81681823730469,0.0,0.0,0.0
213385.39,0.0029719851445406675,0.0005169612704776227,-0.0018231242429465055,-0.0015610664850100875,0.0009128244710154831,0.00042036670492962003,0.8275892734527588,-0.04992862790822983,12.37667465209961,-0.05286405235528946,0.18111613392829895,-0.34196481108665466,-0.001529659260995686,0.01515931449830532,1.0027815103530884,104.81681823730469,0.0,0.0,0.0
213389.314,0.0029719851445406675,0.0005169612704776227,-0.0018231242429465055,-0.0015610664850100875,0.0009128244710154831,0.00042036670492962003,0.8275892734527588,-0.04992862790822983,12.37667465209961,0.06727701425552368,-0.13720549643039703,0.12577618658542633,-0.001714206300675869,0.015445909462869167,1.0016803741455078,104.81681823730469,0.0,0.0,0.0
213393.263,0.002955969888716936,0.000526232470292598,-0.0018175927689298987,-0.001641767332330346,0.0009417823166586459,0.0006863232119940221,0.8275399804115295,-0.04935194551944733,12.362635612487793,0.12317997217178345,-0.18313810229301453,0.09869158267974854,-0.0021247186232358217,0.015703832730650902,1.0005707740783691,104.81681823730469,0.0,0.0,0.0
213397.272,0.002955969888716936,0.000526232470292598,-0.0018175927689298987,-0.001641767332330346,0.0009417823166586459,0.0006863232119940221,0.8275399804115295,-0.04935194551944733,12.362635612487793,-0.27983444929122925,0.12041284143924713,-0.16724365949630737,-0.001604284974746406,0.015244295820593834,1.0013281106948853,104.78948211669922,0.0,0.0,0.0
213401.176,0.002955969888716936,0.000526232470292598,-0.0018175927689298987,-0.001641767332330346,0.0009417823166586459,0.0006863232119940221,0.8275399804115295,-0.04935194551944733,12.362635612487793,0.09795133769512177,0.12023135274648666,0.11333702504634857,-0.0022802487947046757,0.015987833961844444,1.001797080039978,104.78948211669922,0.0,0.0,0.0
213405.154,0.003006171202287078,0.0005158779677003622,-0.0018060584552586079,-0.0012790526961907744,0.0008539659320376813,0.0008417568751610816,0.828702449798584,-0.05204407125711441,12.338597297668457,0.0020064800046384335,0.1869049370288849,0.07253635674715042,-0.00242113065905869,0.016690313816070557,1.0007048845291138,104.78948211669922,0.0,0.0,0.0
213409.089,0.003006171202287078,0.0005158779677003622,-0.0018060584552586079,-0.0012790526961907744,0.0008539659320376813,0.0008417568751610816,0.828702449798584,-0.05204407125711441,12.338597297668457,-0.017394762486219406,0.03167454153299332,0.0829508826136589,-0.0018924659816548228,0.016958562657237053,0.9997003078460693,104.78948211669922,0.0,0.0,0.0
213413.038,0.0029925398994237185,0.0005251845577731729,-0.0017970653716474771,-0.0014469993766397238,0.0010076737962663174,0.0009572522831149399,0.8280244469642639,-0.05362578481435776,12.327113151550293,0.09992435574531555,-0.05966982617974281,-0.12904314696788788,-0.0017185789765790105,0.016447413712739944,0.9991396069526672,104.78948211669922,0.0,0.0,0.0
213417.043,0.0029925398994237185,0.0005251845577731729,-0.0017970653716474771,-0.0014469993766397238,0.0010076737962663174,0.0009572522831149399,0.8280244469642639,-0.05362578481435776,12.327113151550293,0.09433197230100632,-0.16007521748542786,-0.08585231751203537,-0.00019758401322178543,0.016552839428186417,0.9982789754867554,104.83869934082031,0.0,0.0,0.0
213420.946,0.0029925398994237185,0.0005251845577731729,-0.0017970653716474771,-0.0014469993766397238,0.0010076737962663174,0.0009572522831149399,0.8280244469642639,-0.05362578481435776,12.327113151550293,0.1261013001203537,-0.013781360350549221,-0.15284448862075806,0.0006143529317341745,0.016974544152617455,0.9982295036315918,104.83869934082031,0.0,0.0,0.0
213424.919,0.003001547185704112,0.0005022786790505052,-0.0018228385597467422,-0.0013083211379125714,0.000978840864263475,0.0006344150751829147,0.8300890922546387,-0.053996115922927856,12.308192253112793,0.08057036250829697,-0.01492148544639349,-0.046053215861320496,0.0004801883187610656,0.016622107475996017,0.9995326995849609,104.83869934082031,0.0,0.0,0.0
213428.853,0.0030148604419082403,0.00046184074017219245,-0.00180355878546834,-0.0011682059848681092,0.0007291708025150001,0.0007426946540363133,0.8322362899780273,-0.05411282926797867,12.369406700134277,-0.08005739003419876,-0.0631396472454071,0.2161998748779297,0.00014899883535690606,0.015533220022916794,0.9995825886726379,104.83869934082031,0.0,0.0,0.0
213432.802,0.003003638004884124,0.0004703013109974563,-0.0017965731676667929,-0.0010760832810774446,0.0009631857974454761,0.0006548219826072454,0.832136869430542,-0.05369208753108978,12.356492042541504,-0.14161916077136993,0.04650198668241501,0.2611069083213806,5.846854037372395e-06,0.014683561399579048,0.9989729523658752,104.83869934082031,0.0,0.0,0.0
213436.815,0.003003638004884124,0.0004703013109974563,-0.0017965731676667929,-0.0010760832810774446,0.0009631857974454761,0.0006548219826072454,0.832136869430542,-0.05369208753108978,12.356492042541504,-0.10189398378133774,0.21691583096981049,0.09195467829704285,-0.00046784040750935674,0.014639046043157578,0.9989084601402283,104.88243865966797,0.0,0.0,0.0
213440.715,0.003003638004884124,0.0004703013109974563,-0.0017965731676667929,-0.0010760832810774446,0.0009631857974454761,0.0006548219826072454,0.832136869430542,-0.05369208753108978,12.356492042541504,0.014972859062254429,0.019248275086283684,0.1261463463306427,-0.0008173497626557946,0.014940801076591015,0.9998089075088501,104.88243865966797,0.0,0.0,0.0
213444.684,0.0030418229289352894,0.00047441988135688007,-0.0017783353105187416,-0.0006955951685085893,0.0009529514936730266,0.0006686780834570527,0.8312230706214905,-0.05682370811700821,12.337233543395996,0.009133489802479744,-0.04711009934544563,0.15209969878196716,-0.0004821887123398483,0.014948567375540733,1.0005649328231812,104.88243865966797,0.0,0.0,0.0
213448.625,0.0030418229289352894,0.00047441988135688007,-0.0017783353105187416,-0.0006955951685085893,0.0009529514936730266,0.0006686780834570527,0.8312230706214905,-0.05682370811700821,12.337233543395996,0.10517167299985886,-0.01036918442696333,0.09834345430135727,-0.00024054459936451167,0.014213060960173607,1.0014865398406982,104.88243865966797,0.0,0.0,0.0
213452.576,0.0030350249726325274,0.00048414990305900574,-0.001771451672539115,-0.0006637630285695195,0.000993203604593873,0.0007084216340444982,0.8304204344749451,-0.05694355070590973,12.326154708862305,0.25461724400520325,0.06672147661447525,0.20108705759048462,-0.0005981335416436195,0.01481493841856718,1.0028620958328247,104.88243865966797,0.0,0.0,0.0
213456.578,0.0030350249726325274,0.00048414990305900574,-0.001771451672539115,-0.0006637630285695195,0.000993203604593873,0.0007084216340444982,0.8304204344749451,-0.05694355070590973,12.326154708862305,0.32811403274536133,0.18837513029575348,-0.18982593715190887,-0.0011686268262565136,0.015326804481446743,1.0024738311767578,104.95899200439453,0.0,0.0,0.0
213460.485,0.0030350249726325274,0.00048414990305900574,-0.001771451672539115,-0.0006637630285695195,0.000993203604593873,0.0007084216340444982,0.8304204344749451,-0.05694355070590973,12.326154708862305,0.06047868728637695,0.23605643212795258,-0.1842181235551834,-0.0008736092131584883,0.014514083042740822,1.0013184547424316,104.95899200439453,0.0,0.0,0.0
213464.473,0.0030824162531644106,0.0004514829197432846,-0.0017945307772606611,-0.000234112492762506,0.0007283958839252591,0.0007455757586285472,0.8320986032485962,-0.057818662375211716,12.31423282623291,-0.006318460684269667,-0.0013523702509701252,0.29132339358329773,-0.00105778849683702,0.01412567775696516,1.0014506578445435,104.95899200439453,0.0,0.0,0.0
213468.392,0.0030824162531644106,0.0004514829197432846,-0.0017945307772606611,-0.000234112492762506,0.0007283958839252591,0.0007455757586285472,0.8320986032485962,-0.057818662375211716,12.31423282623291,-0.007362016476690769,-0.03841967508196831,-0.08080113679170609,-0.0015511410310864449,0.01445141714066267,1.002476692199707,104.95899200439453,0.0,0.0,0.0
213472.353,0.0030800846870988607,0.00045868451707065105,-0.0017862729728221893,-0.00023203485761769116,0.0007119859801605344,0.0009063978213816881,0.8315561413764954,-0.05881206691265106,12.302093505859375,-0.07471421360969543,-0.07949841022491455,-0.14762526750564575,-0.002275018719956279,0.015227511525154114,1.0027146339416504,104.95899200439453,0.0,0.0,0.0
213476.341,0.0030800846870988607,0.00045868451707065105,-0.0017862729728221893,-0.00023203485761769116,0.0007119859801605344,0.0009063978213816881,0.8315561413764954,-0.05881206691265106,12.302093505859375,0.09832711517810822,0.015277860686182976,-0.17099270224571228,-0.0027726469561457634,0.015336587093770504,1.002278208732605,104.93711853027344,0.0,0.0,0.0
213480.254,0.0030800846870988607,0.00045868451707065105,-0.0017862729728221893,-0.00023203485761769116,0.0007119859801605344,0.0009063978213816881,0.8315561413764954,-0.05881206691265106,12.302093505859375,-0.10192032903432846,0.0372915044426918,-0.10765300691127777,-0.0021973117254674435,0.015666451305150986,1.0011122226715088,104.93711853027344,0.0,0.0,0.0
213484.23,0.0030650843400508165,0.00041092518949881196,-0.0017449542647227645,-0.000359399156877771,0.00045191499521024525,0.0013397809816524386,0.8328917622566223,-0.05827871337532997,12.327877044677734,-0.10190865397453308,0.1537168174982071,-0.09979117661714554,-0.0016640875255689025,0.01504473201930523,1.0008926391601562,104.93711853027344,0.0,0.0,0.0
213488.163,0.0030650843400508165,0.00041092518949881196,-0.0017449542647227645,-0.000359399156877771,0.00045191499521024525,0.0013397809816524386,0.8328917622566223,-0.05827871337532997,12.327877044677734,0.005540870595723391,-0.17789722979068756,-0.009930207394063473,-0.0007920482894405723,0.014432163909077644,1.0005297660827637,104.93711853027344,0.0,0.0,0.0
213492.116,0.0030650843400508165,0.00041092518949881196,-0.0017449542647227645,-0.000359399156877771,0.00045191499521024525,0.0013397809816524386,0.8328917622566223,-0.05827871337532997,12.327877044677734,0.1545945554971695,-0.3266804814338684,-0.19123555719852448,-0.0012798606185242534,0.01412555854767561,0.9999331831932068,104.93711853027344,0.0,0.0,0.0
213496.114,0.003061348805204034,0.0004154846246819943,-0.0017312078271061182,-0.0003875952388625592,0.0004600748070515692,0.001409899559803307,0.83185875415802,-0.05767456069588661,12.314764976501465,0.08085469156503677,-0.240911066532135,-0.0515616200864315,-0.001049719750881195,0.013861184939742088,1.0008816719055176,104.8605728149414,0.0,0.0,0.0
213500.023,0.003061348805204034,0.0004154846246819943,-0.0017312078271061182,-0.0003875952388625592,0.0004600748070515692,0.001409899559803307,0.83185875415802,-0.05767456069588661,12.314764976501465,0.16445688903331757,-0.11009515076875687,-0.10749766230583191,-0.0012116123689338565,0.013176471926271915,1.0022292137145996,104.8605728149414,0.0,0.0,0.0
213504.003,0.0030693309381604195,0.000426688464358449,-0.0017323356587439775,-0.0003329626051709056,0.0004022556240670383,0.0014421079540625215,0.8322452902793884,-0.05541336536407471,12.3615083694458,0.13821066915988922,-0.004900510888546705,-0.031985118985176086,-0.001500120386481285,0.014143574982881546,1.0020363330841064,104.8605728149414,0.0,0.0,0.0
213507.934,0.0030693309381604195,0.000426688464358449,-0.0017323356587439775,-0.0003329626051709056,0.0004022556240670383,0.0014421079540625215,0.8322452902793884,-0.05541336536407471,12.3615083694458,0.26752302050590515,0.031801220029592514,0.020023375749588013,-0.0008152655209414661,0.015541182830929756,1.0014251470565796,104.8605728149414,0.0,0.0,0.0
213511.893,0.0030693309381604195,0.000426688464358449,-0.0017323356587439775,-0.0003329626051709056,0.0004022556240670383,0.0014421079540625215,0.8322452902793884,-0.05541336536407471,12.3615083694458,0.006776535417884588,0.08877532929182053,-0.06013212725520134,-0.0006533655105158687,0.016354018822312355,1.000941514968872,104.8605728149414,0.0,0.0,0.0
213515.887,0.003065916011109948,0.00043088523671031,-0.0017170680221170187,-0.00034994102315977216,0.0004371932300273329,0.00161181075964123,0.8331612348556519,-0.0558038055896759,12.348878860473633,0.04249972477555275,-0.11355848610401154,-0.002357065910473466,-0.0015526767820119858,0.017401795834302902,1.0018097162246704,104.83322143554688,0.0,0.0,0.0
213519.788,0.003065916011109948,0.00043088523671031,-0.0017170680221170187,-0.00034994102315977216,0.0004371932300273329,0.00161181075964123,0.8331612348556519,-0.0558038055896759,12.348878860473633,0.09725479036569595,0.047510139644145966,0.08107917755842209,-0.002261220244690776,0.017882421612739563,1.0033905506134033,104.83322143554688,0.0,0.0,0.0
213523.768,0.003061833791434765,0.0004365192144177854,-0.001699817250482738,-0.0004663612926378846,0.0006897261482663453,0.0018387470627203584,0.8328115344047546,-0.055583782494068146,12.336776733398438,-0.018003547564148903,0.12968891859054565,0.02712835744023323,-0.0016687108436599374,0.018431318923830986,1.0043110847473145,104.83322143554688,0.0,0.0,0.0
213527.702,0.003061833791434765,0.0004365192144177854,-0.001699817250482738,-0.0004663612926378846,0.0006897261482663453,0.0018387470627203584,0.8328115344047546,-0.055583782494068146,12.336776733398438,-0.3030053675174713,0.1728767454624176,0.005364926997572184,-0.0011185342445969582,0.01810382306575775,1.0038235187530518,104.83322143554688,0.0,0.0,0.0
213531.669,0.003061833791434765,0.0004365192144177854,-0.001699817250482738,-0.0004663612926378846,0.0006897261482663453,0.0018387470627203584,0.8328115344047546,-0.055583782494068146,12.336776733398438,-0.10346560180187225,0.11654795706272125,0.18232159316539764,-0.0005940443370491266,0.016892049461603165,1.0025041103363037,104.83322143554688,0.0,0.0,0.0
213535.669,0.0030566295608878136,0.0004450571723282337,-0.0016794551629573107,-0.0005742796929553151,0.0010180319659411907,0.002234075916931033,0.8304640054702759,-0.0570845752954483,12.324991226196289,-0.09179019927978516,0.05528135970234871,-0.05505819618701935,-0.0001613881904631853,0.015747087076306343,1.000624656677246,104.80042266845703,0.0,0.0,0.0
213539.566,0.0030842283740639687,0.0004243052680976689,-0.0016926794778555632,-0.000369093642802909,0.0008742571226321161,0.0021432077046483755,0.8304640054702759,-0.0570845752954483,12.324991226196289,-0.22387254238128662,0.1854742020368576,-0.05901021137833595,-0.0005758646293543279,0.015358246862888336,0.9997126460075378,104.80042266845703,0.0,0.0,0.0
213543.537,0.003080683993175626,0.00043375155655667186,-0.0016708273906260729,-0.0003395815729163587,0.0010151066817343235,0.0022276134695857763,0.8283225893974304,-0.05821263790130615,12.312704086303711,-0.08438101410865784,0.015774644911289215,-0.10774247348308563,-0.0017749506514519453,0.01573447696864605,1.000432014465332,104.80042266845703,0.0,0.0,0.0
213547.473,0.003080683993175626,0.00043375155655667186,-0.0016708273906260729,-0.0003395815729163587,0.0010151066817343235,0.0022276134695857763,0.8283225893974304,-0.05821263790130615,12.312704086303711,0.1691114455461502,0.17760919034481049,-0.1104736253619194,-0.0037618689239025116,0.015545574016869068,1.0019774436950684,104.80042266845703,0.0,0.0,0.0
213551.429,0.003080683993175626,0.00043375155655667186,-0.0016708273906260729,-0.0003395815729163587,0.0010151066817343235,0.0022276134695857763,0.8283225893974304,-0.05821263790130615,12.312704086303711,0.1918288618326187,-0.14105792343616486,-0.01604163460433483,-0.004102033097296953,0.015224143862724304,1.001991629600525,104.80042266845703,0.0,0.0,0.0
213555.435,0.003076282562687993,0.00044422256178222597,-0.0016478911275044084,-0.0005404808325693011,0.0010792471002787352,0.0023600016720592976,0.8279841542243958,-0.0589497871696949,12.299596786499023,0.03190705180168152,-0.05572202801704407,0.04960379749536514,-0.0035630224738270044,0.014603015966713428,1.0014662742614746,104.81135559082031,0.0,0.0,0.0
213559.328,0.0030328254215419292,0.00045059286640025675,-0.0016612847102805972,-0.0008525988669134676,0.0011436594650149345,0.0022716280072927475,0.8279841542243958,-0.0589497871696949,12.299596786499023,0.14050397276878357,-0.16365252435207367,-0.015088522806763649,-0.00323757017031312,0.013499747961759567,1.0012074708938599,104.81135559082031,0.0,0.0,0.0
213563.302,0.0030230889096856117,0.0004617245285771787,-0.0016377782449126244,-0.0010944895911961794,0.0010829399107024074,0.0024300760123878717,0.8282567858695984,-0.057922687381505966,12.287535667419434,0.08100639283657074,0.16494782269001007,0.13579972088336945,-0.0022951422724872828,0.012683795765042305,1.0007869005203247,104.81135559082031,0.0,0.0,0.0
