timestamp,stateEstimate.x,stateEstimate.y,stateEstimate.z,stateEstimate.vx,stateEstimate.vy,stateEstimate.vz,stateEstimate.roll,stateEstimate.pitch,stateEstimate.yaw,gyro.x,gyro.y,gyro.z,acc.x,acc.y,acc.z,baro.asl,lighthouse.x,lighthouse.y,lighthouse.z
301595.04,-0.009757974185049534,-0.000262481567915529,0.002863076515495777,-0.027045292779803276,-0.021027622744441032,-0.004733960144221783,0.9472790956497192,0.04229850694537163,0.33982226252555847,-0.20293188095092773,0.24054837226867676,0.0058486792258918285,-0.006070531904697418,0.014045467600226402,1.0027275085449219,105.440185546875,0.0,0.0,0.0
301599.006,-0.009757974185049534,-0.000262481567915529,0.002863076515495777,-0.027045292779803276,-0.021027622744441032,-0.004733960144221783,0.9472790956497192,0.04229850694537163,0.33982226252555847,-0.11344286054372787,-0.23963108658790588,0.2264655977487564,-0.006789301987737417,0.013566354289650917,1.0024927854537964,105.440185546875,0.0,0.0,0.0
301602.933,-0.010031589306890965,-0.00047389534302055836,0.0028168971184641123,-0.02767786756157875,-0.021255046129226685,-0.0045011090114712715,0.9448087811470032,0.04096893221139908,0.34009167551994324,-0.15459321439266205,-0.06724213063716888,0.06403481215238571,-0.006288825999945402,0.012414712458848953,1.0014971494674683,105.440185546875,0.0,0.0,0.0
301606.892,-0.010031589306890965,-0.00047389534302055836,0.0028168971184641123,-0.02767786756157875,-0.021255046129226685,-0.0045011090114712715,0.9448087811470032,0.04096893221139908,0.34009167551994324,-0.20379798114299774,0.004689297638833523,0.09319169819355011,-0.005741555243730545,0.011654937639832497,1.0008000135421753,105.440185546875,0.0,0.0,0.0
301610.892,-0.010311762802302837,-0.0006884743925184011,0.0027726420667022467,-0.028356878086924553,-0.021660679951310158,-0.00434912322089076,0.9422175884246826,0.04186289384961128,0.34088900685310364,0.04886014387011528,0.018885333091020584,-0.10977036505937576,-0.0058431983925402164,0.011719903908669949,1.0009485483169556,105.3800277709961,0.0,0.0,0.0
301614.801,-0.010187774896621704,-0.0007796519203111529,0.002750222571194172,-0.02754771150648594,-0.022175628691911697,-0.00448028976097703,0.9463928937911987,0.035800062119960785,0.39069944620132446,-0.022510353475809097,0.10425282269716263,-0.13491113483905792,-0.004554636310786009,0.012707432731986046,1.001383662223816,105.3800277709961,0.0,0.0,0.0
301618.765,-0.010187774896621704,-0.0007796519203111529,0.002750222571194172,-0.02754771150648594,-0.022175628691911697,-0.00448028976097703,0.9463928937911987,0.035800062119960785,0.39069944620132446,-0.02551957219839096,0.1301751583814621,0.122776560485363,-0.0035734723787754774,0.01401672326028347,1.0010013580322266,105.3800277709961,0.0,0.0,0.0
301622.703,-0.01046600379049778,-0.0010034636361524463,0.002706006867811084,-0.028098203241825104,-0.02258658967912197,-0.004362072329968214,0.9453420042991638,0.03510250151157379,0.3895338177680969,-0.05190266668796539,-0.23594333231449127,0.2638288140296936,-0.004190617706626654,0.015121283940970898,1.0012692213058472,105.3800277709961,0.0,0.0,0.0
301626.66,-0.01046600379049778,-0.0010034636361524463,0.002706006867811084,-0.028098203241825104,-0.02258658967912197,-0.004362072329968214,0.9453420042991638,0.03510250151157379,0.3895338177680969,0.1466580331325531,-0.036969441920518875,0.1107451468706131,-0.004093799274414778,0.014681510627269745,1.0012108087539673,105.3800277709961,0.0,0.0,0.0
301630.658,-0.010749232023954391,-0.0012302105315029621,0.002663014456629753,-0.028547637164592743,-0.022762689739465714,-0.0042356522753834724,0.9445980191230774,0.03579122945666313,0.39095768332481384,0.18016918003559113,0.15629328787326813,-0.06892383843660355,-0.0035413873847573996,0.014124516397714615,1.0002670288085938,105.45658874511719,0.0,0.0,0.0
301634.572,-0.006460599135607481,0.0029647708870470524,0.0049919262528419495,-0.0007408093078993261,0.0015265826368704438,0.004929498303681612,0.7310718297958374,-0.20247691869735718,0.3938148021697998,0.08505461364984512,0.13495557010173798,-0.22011032700538635,-0.0036665445659309626,0.013551120646297932,1.0003689527511597,105.45658874511719,0.0,0.0,0.0
301638.553,-0.006460599135607481,0.0029647708870470524,0.0049919262528419495,-0.0007408093078993261,0.0015265826368704438,0.004929498303681612,0.7310718297958374,-0.20247691869735718,0.3938148021697998,-0.22758547961711884,0.3642216622829437,-0.25772178173065186,-0.0030896563548594713,0.012712444178760052,1.0011718273162842,105.45658874511719,0.0,0.0,0.0
301642.477,-0.0064680189825594425,0.002980496734380722,0.005041496828198433,-0.0007431787089444697,0.0016186608700081706,0.0049849702045321465,0.7312093377113342,-0.20397347211837769,0.3919566869735718,-0.14262065291404724,-0.16795900464057922,-0.09458369761705399,-0.0028672704938799143,0.013420957140624523,1.0023778676986694,105.45658874511719,0.0,0.0,0.0
301646.432,-0.008220188319683075,0.0010014903964474797,0.003452263306826353,-0.010178511030972004,-0.00981484167277813,-0.0020725540816783905,0.8320282697677612,-0.12308826297521591,0.35397499799728394,0.11113063991069794,-0.26113682985305786,-0.10635056346654892,-0.0025634588673710823,0.013468972407281399,1.0028762817382812,105.45658874511719,0.0,0.0,0.0
301650.426,-0.008220188319683075,0.0010014903964474797,0.003452263306826353,-0.010178511030972004,-0.00981484167277813,-0.0020725540816783905,0.8320282697677612,-0.12308826297521591,0.35397499799728394,-0.07873950898647308,-0.36368048191070557,0.09572452306747437,-0.002794009167701006,0.01323537714779377,1.0024524927139282,105.42924499511719,0.0,0.0,0.0
301654.341,-0.008488532155752182,0.0009258244535885751,0.0037065157666802406,-0.011025499552488327,-0.009850130416452885,-0.00032637573895044625,0.8294525742530823,-0.11518582701683044,0.3753516674041748,0.024216750636696815,-0.2265278548002243,-0.04737090319395065,-0.0037150962743908167,0.013757072389125824,1.0014426708221436,105.42924499511719,0.0,0.0,0.0
301658.307,-0.008488532155752182,0.0009258244535885751,0.0037065157666802406,-0.011025499552488327,-0.009850130416452885,-0.00032637573895044625,0.8294525742530823,-0.11518582701683044,0.3753516674041748,0.0251828171312809,0.26690930128097534,0.16092589497566223,-0.004351813346147537,0.014766077511012554,1.0007619857788086,105.42924499511719,0.0,0.0,0.0
301662.245,-0.008599451743066311,0.0008269068785011768,0.003704196074977517,-0.011158562265336514,-0.009933315217494965,-0.00013706641038879752,0.8285519480705261,-0.11290077865123749,0.37518906593322754,-0.03565855324268341,0.268485426902771,0.30948418378829956,-0.004196062218397856,0.015063823200762272,1.0004600286483765,105.42924499511719,0.0,0.0,0.0
301666.204,-0.009701677598059177,-0.00023666227934882045,0.0028047477826476097,-0.015603497624397278,-0.015995528548955917,-0.004349737428128719,0.8824896216392517,-0.07450341433286667,0.3334611654281616,-0.09417220205068588,-0.10230182111263275,0.19694873690605164,-0.003486313158646226,0.01576094888150692,1.0005906820297241,105.42924499511719,0.0,0.0,0.0
301670.199,-0.009859039448201656,-0.0003967073280364275,0.002761581214144826,-0.01586892642080784,-0.016013463959097862,-0.004282953683286905,0.8810753226280212,-0.07584730535745621,0.3355889320373535,0.16576625406742096,-0.20206964015960693,-0.012216602452099323,-0.0031616261694580317,0.01627258025109768,1.0003665685653687,105.412841796875,0.0,0.0,0.0
301674.116,-0.006552963051944971,0.0015844844747334719,0.0035115217324346304,-0.003613624721765518,-0.005242356099188328,-0.001750744180753827,0.7853337526321411,-0.18397267162799835,0.34135204553604126,-0.04244823753833771,0.07461158186197281,-0.010545059107244015,-0.003994095604866743,0.015760773792862892,1.0001113414764404,105.412841796875,0.0,0.0,0.0
301678.086,-0.006552963051944971,0.0015844844747334719,0.0035115217324346304,-0.003613624721765518,-0.005242356099188328,-0.001750744180753827,0.7853337526321411,-0.18397267162799835,0.34135204553604126,-0.09471555799245834,-0.21138520538806915,-0.23238623142242432,-0.004549088422209024,0.014982897788286209,1.0001776218414307,105.412841796875,0.0,0.0,0.0
301682.019,-0.0065893507562577724,0.0015331270406022668,0.0034941905178129673,-0.003663948504254222,-0.005029132589697838,-0.0017150663770735264,0.7848700284957886,-0.18306884169578552,0.3407134413719177,-0.23425480723381042,-0.14611423015594482,-0.18655160069465637,-0.004471979569643736,0.014888347126543522,1.0008724927902222,105.412841796875,0.0,0.0,0.0
301685.974,-0.0065893507562577724,0.0015331270406022668,0.0034941905178129673,-0.003663948504254222,-0.005029132589697838,-0.0017150663770735264,0.7848700284957886,-0.18306884169578552,0.3407134413719177,0.1252591609954834,-0.07620708644390106,0.2966042459011078,-0.004497259855270386,0.015203006565570831,1.0014644861221313,105.412841796875,0.0,0.0,0.0
301689.971,-0.006626630201935768,0.001483461237512529,0.003477551741525531,-0.0037920090835541487,-0.004904019180685282,-0.0016122311353683472,0.7833399176597595,-0.18133558332920074,0.3399854600429535,0.009153897874057293,-0.37005332112312317,-0.1326763778924942,-0.0037791465874761343,0.015182939358055592,1.001717209815979,105.40190887451172,0.0,0.0,0.0
301693.879,-0.006626630201935768,0.001483461237512529,0.003477551741525531,-0.0037920090835541487,-0.004904019180685282,-0.0016122311353683472,0.7833399176597595,-0.18133558332920074,0.3399854600429535,-0.0335489921271801,-0.046061452478170395,-0.2922675609588623,-0.002318750834092498,0.014733978547155857,1.0017518997192383,105.40190887451172,0.0,0.0,0.0
301697.847,-0.006626630201935768,0.001483461237512529,0.003477551741525531,-0.0037920090835541487,-0.004904019180685282,-0.0016122311353683472,0.7833399176597595,-0.18133558332920074,0.3399854600429535,-0.09330213814973831,-0.014358173124492168,-0.18207646906375885,-0.002242793794721365,0.013325231149792671,1.0010172128677368,105.40190887451172,0.0,0.0,0.0
301701.795,-0.00666445167735219,0.0014349555131047964,0.003462280845269561,-0.0037722706329077482,-0.004797115921974182,-0.0014415262266993523,0.782523512840271,-0.17955897748470306,0.33779215812683105,0.04305032640695572,-0.3700537085533142,0.1597749888896942,-0.003307155566290021,0.012690523639321327,1.0007086992263794,105.40190887451172,0.0,0.0,0.0
301705.742,-0.00666445167735219,0.0014349555131047964,0.003462280845269561,-0.0037722706329077482,-0.004797115921974182,-0.0014415262266993523,0.782523512840271,-0.17955897748470306,0.33779215812683105,-0.10235961526632309,-0.11664890497922897,-0.01215879712253809,-0.003844765480607748,0.013283866457641125,1.0020451545715332,105.40190887451172,0.0,0.0,0.0
301709.743,-0.0067022317089140415,0.0013866492081433535,0.0034485207870602608,-0.0037838106509298086,-0.004864128772169352,-0.001310052233748138,0.7812566757202148,-0.17731314897537231,0.3376867473125458,0.01932954601943493,-0.06974544376134872,0.0034095444716513157,-0.004237039014697075,0.013598788529634476,1.0031341314315796,105.37456512451172,0.0,0.0,0.0
301713.649,-0.004382188431918621,0.002940333914011717,0.0036347410641610622,0.008135187439620495,0.004564543720334768,-0.0014533089706674218,0.6967840790748596,-0.2841413617134094,0.3344099521636963,-0.08184037357568741,0.20502406358718872,-0.26437968015670776,-0.005029554013162851,0.013661186210811138,1.003060221672058,105.37456512451172,0.0,0.0,0.0
301717.621,-0.004382188431918621,0.002940333914011717,0.0036347410641610622,0.008135187439620495,0.004564543720334768,-0.0014533089706674218,0.6967840790748596,-0.2841413617134094,0.3344099521636963,0.38685688376426697,-0.2774572968482971,0.050089266151189804,-0.004599432926625013,0.013871261849999428,1.0023828744888306,105.37456512451172,0.0,0.0,0.0
301721.559,-0.004300664644688368,0.0029866958502680063,0.0036217093002051115,0.008169619366526604,0.004707786720246077,-0.0011526388116180897,0.6962054967880249,-0.2841169834136963,0.33286216855049133,0.3438243567943573,-0.2307930290699005,0.28143006563186646,-0.004276509862393141,0.013914478942751884,1.003210186958313,105.37456512451172,0.0,0.0,0.0
301725.51,-0.004300664644688368,0.0029866958502680063,0.0036217093002051115,0.008169619366526604,0.004707786720246077,-0.0011526388116180897,0.6962054967880249,-0.2841169834136963,0.33286216855049133,-0.092946358025074,0.09991598129272461,0.19684220850467682,-0.003786796936765313,0.014242535457015038,1.0040645599365234,105.37456512451172,0.0,0.0,0.0
301729.509,-0.004300664644688368,0.0029866958502680063,0.0036217093002051115,0.008169619366526604,0.004707786720246077,-0.0011526388116180897,0.6962054967880249,-0.2841169834136963,0.33286216855049133,-0.06506748497486115,-0.04905547574162483,-0.03317737579345703,-0.004057560581713915,0.014551730826497078,1.004356861114502,105.37456512451172,0.0,0.0,0.0
301733.425,-0.00529005890712142,0.0037421362940222025,0.004978449083864689,0.0026526895817369223,0.008524489589035511,0.0070383441634476185,0.6662747263908386,-0.23283137381076813,0.3663816452026367,0.04604730010032654,-0.42682623863220215,0.06885100156068802,-0.003745325608178973,0.015135874971747398,1.0033003091812134,105.37456512451172,0.0,0.0,0.0
301737.391,-0.00529005890712142,0.0037421362940222025,0.004978449083864689,0.0026526895817369223,0.008524489589035511,0.0070383441634476185,0.6662747263908386,-0.23283137381076813,0.3663816452026367,0.07598245143890381,-0.2939450740814209,0.045888323336839676,-0.003219391917809844,0.014866634272038937,1.002161979675293,105.37456512451172,0.0,0.0,0.0
301741.331,-0.00526340352371335,0.003828940447419882,0.005050663836300373,0.0026783826760947704,0.008836430497467518,0.0074049304239451885,0.6654009222984314,-0.23020996153354645,0.3662785291671753,0.07451126724481583,0.19247162342071533,-0.19357886910438538,-0.0029338225722312927,0.014077924191951752,1.0018168687820435,105.37456512451172,0.0,0.0,0.0
301745.282,-0.007429928053170443,0.0016240914119407535,0.003508436493575573,-0.008307044394314289,-0.004684257786720991,-0.00022113397426437587,0.7852874398231506,-0.13197928667068481,0.3242936432361603,0.09552520513534546,-0.04748580604791641,-0.0431528203189373,-0.0028368241619318724,0.014045477844774723,1.0020242929458618,105.37456512451172,0.0,0.0,0.0
301749.279,-0.0075133200734853745,0.0015774864004924893,0.003507229033857584,-0.008371359668672085,-0.0046367039903998375,-1.991516910493374e-05,0.7853595018386841,-0.1319635957479477,0.3231235146522522,0.10858047008514404,-0.28056496381759644,-0.06950469315052032,-0.00368871889077127,0.013281089253723621,1.0013010501861572,105.38550567626953,0.0,0.0,0.0
301753.189,-0.0075133200734853745,0.0015774864004924893,0.003507229033857584,-0.008371359668672085,-0.0046367039903998375,-1.991516910493374e-05,0.7853595018386841,-0.1319635957479477,0.3231235146522522,0.3184560537338257,-0.02090051770210266,-0.029467029497027397,-0.005028253886848688,0.01304719690233469,1.0015465021133423,105.38550567626953,0.0,0.0,0.0
301757.171,-0.0075133200734853745,0.0015774864004924893,0.003507229033857584,-0.008371359668672085,-0.0046367039903998375,-1.991516910493374e-05,0.7853595018386841,-0.1319635957479477,0.3231235146522522,-0.03975052759051323,-0.2638542056083679,-0.03703726828098297,-0.006219127681106329,0.013997183181345463,1.0017091035842896,105.38550567626953,0.0,0.0,0.0
301761.096,-0.007598134223371744,0.0015309047885239124,0.0035078092478215694,-0.00859146285802126,-0.004679573699831963,0.00013636976655106992,0.7865464091300964,-0.13022096455097198,0.3221750259399414,-0.19431090354919434,-0.0925801545381546,0.07085609436035156,-0.005594940390437841,0.01433680672198534,1.0021758079528809,105.38550567626953,0.0,0.0,0.0
301765.052,-0.008901041932404041,0.0003389297635294497,0.0027488188352435827,-0.01568068377673626,-0.012241660617291927,-0.0035617093089967966,0.8536081910133362,-0.06753362715244293,0.2738472819328308,0.05848592892289162,-0.26404252648353577,-0.11968809366226196,-0.003955272492021322,0.013886163011193275,1.0022403001785278,105.38550567626953,0.0,0.0,0.0
301769.053,-0.009059818461537361,0.0002161130541935563,0.0027142746839672327,-0.0160746518522501,-0.012321649119257927,-0.003346577286720276,0.8518465161323547,-0.06549155712127686,0.2734546363353729,-0.09707441180944443,-0.010547397658228874,0.19291828572750092,-0.0028976942412555218,0.013345208019018173,1.0008254051208496,105.46752166748047,0.0,0.0,0.0
301772.961,-0.009059818461537361,0.0002161130541935563,0.0027142746839672327,-0.0160746518522501,-0.012321649119257927,-0.003346577286720276,0.8518465161323547,-0.06549155712127686,0.2734546363353729,-0.0412435308098793,0.17203101515769958,-0.0533246248960495,-0.0022951585706323385,0.012258385308086872,1.000885248184204,105.46752166748047,0.0,0.0,0.0
301776.937,-0.009059818461537361,0.0002161130541935563,0.0027142746839672327,-0.0160746518522501,-0.012321649119257927,-0.003346577286720276,0.8518465161323547,-0.06549155712127686,0.2734546363353729,0.07118718326091766,0.0767446905374527,0.037056975066661835,-0.0026808115653693676,0.011619234457612038,1.0023564100265503,105.46752166748047,0.0,0.0,0.0
301780.868,-0.009221290238201618,9.180909546557814e-05,0.002681391779333353,-0.016219710931181908,-0.01253911666572094,-0.0032294343691319227,0.8506263494491577,-0.06590864807367325,0.273818701505661,-0.001788552850484848,0.39483755826950073,-0.13857384026050568,-0.0035574790090322495,0.011413400992751122,1.0031614303588867,105.46752166748047,0.0,0.0,0.0
301784.823,-0.00995488278567791,-0.0006334527861326933,0.002187951235100627,-0.020803047344088554,-0.017271293327212334,-0.0057418979704380035,0.8926932215690613,-0.025810521095991135,0.23316127061843872,0.053320907056331635,-0.11384502798318863,0.13388395309448242,-0.004878554027527571,0.011780744418501854,1.001658320426941,105.46752166748047,0.0,0.0,0.0
301788.823,-0.010156714357435703,-0.0009042274323292077,0.002262956229969859,-0.021051935851573944,-0.01817474327981472,-0.004711420275270939,0.8963159918785095,-0.0267560426145792,0.25602367520332336,0.25658541917800903,-0.8072277903556824,0.02004576474428177,-0.005451425909996033,0.012565757147967815,1.0012742280960083,105.3909683227539,0.0,0.0,0.0
301792.733,-0.010156714357435703,-0.0009042274323292077,0.002262956229969859,-0.021051935851573944,-0.01817474327981472,-0.004711420275270939,0.8963159918785095,-0.0267560426145792,0.25602367520332336,0.2051725685596466,-0.3082951605319977,-0.09602581709623337,-0.005423360969871283,0.012501991353929043,1.0009700059890747,105.3909683227539,0.0,0.0,0.0
301796.703,-0.010156714357435703,-0.0009042274323292077,0.002262956229969859,-0.021051935851573944,-0.01817474327981472,-0.004711420275270939,0.8963159918785095,-0.0267560426145792,0.25602367520332336,-0.03465208783745766,-0.03805655241012573,0.04307710379362106,-0.005112140439450741,0.013433330692350864,1.0015895366668701,105.3909683227539,0.0,0.0,0.0
301800.642,-0.010369641706347466,-0.001087412005290389,0.00221645412966609,-0.021533625200390816,-0.018462149426341057,-0.00458837253972888,0.8969964385032654,-0.02303684689104557,0.25540560483932495,0.04961046576499939,-0.007837334647774696,0.11823076009750366,-0.003928746096789837,0.013991600833833218,1.0031203031539917,105.3909683227539,0.0,0.0,0.0
301804.596,-0.010819953866302967,-0.0014901423128321767,0.001991982338950038,-0.023731602355837822,-0.02081255428493023,-0.005746868439018726,0.9179073572158813,-0.004122417885810137,0.21956384181976318,-0.0797586739063263,-0.012905441224575043,0.1655360609292984,-0.0026122317649424076,0.013669151812791824,1.002835750579834,105.3909683227539,0.0,0.0,0.0
301808.596,-0.01093217357993126,-0.00176374486181885,0.0019082603976130486,-0.023565223440527916,-0.02140304632484913,-0.005644455086439848,0.9197914004325867,-0.007214691955596209,0.26958024501800537,0.08216126263141632,-0.18703049421310425,0.089373879134655,-0.0026440024375915527,0.012780321761965752,1.0026073455810547,105.42924499511719,0.0,0.0,0.0
301812.503,-0.01093217357993126,-0.00176374486181885,0.0019082603976130486,-0.023565223440527916,-0.02140304632484913,-0.005644455086439848,0.9197914004325867,-0.007214691955596209,0.26958024501800537,0.01641169935464859,-0.3434746265411377,0.024489350616931915,-0.0034998836927115917,0.012586718425154686,1.0029557943344116,105.42924499511719,0.0,0.0,0.0
301816.473,-0.01093217357993126,-0.00176374486181885,0.0019082603976130486,-0.023565223440527916,-0.02140304632484913,-0.005644455086439848,0.9197914004325867,-0.007214691955596209,0.26958024501800537,0.054353535175323486,-0.04688568040728569,-0.30747416615486145,-0.0030529696960002184,0.012274660170078278,1.0027129650115967,105.42924499511719,0.0,0.0,0.0
301820.408,-0.011169313453137875,-0.001979527296498418,0.0018532390240579844,-0.023862894624471664,-0.021753424778580666,-0.0053590890020132065,0.9193712472915649,-0.004977316129952669,0.2687875032424927,0.056530073285102844,-0.25239357352256775,0.032121725380420685,-0.002829823177307844,0.011450584046542645,1.001644253730774,105.42924499511719,0.0,0.0,0.0
301824.365,-0.011377272196114063,-0.002185248304158449,0.0017148492624983191,-0.024730443954467773,-0.02281605266034603,-0.006129106972366571,0.9289205074310303,0.00218442571349442,0.2345701903104782,0.2641908526420593,-0.24211935698986053,0.10712038725614548,-0.0022790906950831413,0.010795594193041325,1.0002976655960083,105.42924499511719,0.0,0.0,0.0
301828.369,-0.011500196531414986,-0.002424177248030901,0.001531420275568962,-0.0245748832821846,-0.023366108536720276,-0.006769115105271339,0.9297770857810974,0.0006487563950940967,0.2590230405330658,0.03711659088730812,0.1483384072780609,0.14899501204490662,-0.0028892194386571646,0.010856362991034985,1.0000064373016357,105.38550567626953,0.0,0.0,0.0
301832.268,-0.011500196531414986,-0.002424177248030901,0.001531420275568962,-0.0245748832821846,-0.023366108536720276,-0.006769115105271339,0.9297770857810974,0.0006487563950940967,0.2590230405330658,-0.09460622072219849,0.06365250051021576,-0.034010715782642365,-0.004643541295081377,0.012048925273120403,1.0005189180374146,105.38550567626953,0.0,0.0,0.0
301836.248,-0.011500196531414986,-0.002424177248030901,0.001531420275568962,-0.0245748832821846,-0.023366108536720276,-0.006769115105271339,0.9297770857810974,0.0006487563950940967,0.2590230405330658,-0.17274947464466095,0.08358354866504669,-0.17635157704353333,-0.005618993658572435,0.013271489180624485,1.0003604888916016,105.38550567626953,0.0,0.0,0.0
301840.187,-0.011748128570616245,-0.0026599005796015263,0.001463934313505888,-0.0250116977840662,-0.023778576403856277,-0.006727304775267839,0.9278963208198547,-0.0002521617279853672,0.25861838459968567,-0.05094408243894577,-0.17313919961452484,-0.06318319588899612,-0.006334715988487005,0.014885143376886845,1.0005611181259155,105.38550567626953,0.0,0.0,0.0
301844.134,-0.011748128570616245,-0.0026599005796015263,0.001463934313505888,-0.0250116977840662,-0.023778576403856277,-0.006727304775267839,0.9278963208198547,-0.0002521617279853672,0.25861838459968567,-0.1517065167427063,-0.4158519208431244,0.32834985852241516,-0.005446731112897396,0.014614730142056942,1.0009535551071167,105.38550567626953,0.0,0.0,0.0
301848.139,-0.01200109627097845,-0.00289852824062109,0.0013970700092613697,-0.02558198571205139,-0.02394694648683071,-0.006644777487963438,0.9260156750679016,0.0019476283341646194,0.25943151116371155,0.11417645961046219,-0.028390517458319664,0.19912755489349365,-0.004943289328366518,0.01356444787234068,1.0013213157653809,105.37456512451172,0.0,0.0,0.0
301852.042,-0.01200109627097845,-0.00289852824062109,0.0013970700092613697,-0.02558198571205139,-0.02394694648683071,-0.006644777487963438,0.9260156750679016,0.0019476283341646194,0.25943151116371155,0.13828305900096893,0.18385574221611023,-0.16008633375167847,-0.004197875037789345,0.01379492599517107,1.0012824535369873,105.37456512451172,0.0,0.0,0.0
301856.011,-0.01200109627097845,-0.00289852824062109,0.0013970700092613697,-0.02558198571205139,-0.02394694648683071,-0.006644777487963438,0.9260156750679016,0.0019476283341646194,0.25943151116371155,0.050516244024038315,-0.025529420003294945,-0.02036977745592594,-0.0033755230251699686,0.014104753732681274,1.0003796815872192,105.37456512451172,0.0,0.0,0.0
301859.954,-0.012259010225534439,-0.003139183623716235,0.0013311910443007946,-0.026000943034887314,-0.02418411709368229,-0.006530221085995436,0.926102340221405,0.001462454441934824,0.25892725586891174,0.008290266618132591,0.46804314851760864,0.13181273639202118,-0.003351418999955058,0.01404212974011898,1.0006974935531616,105.37456512451172,0.0,0.0,0.0
301863.91,-0.012259010225534439,-0.003139183623716235,0.0013311910443007946,-0.026000943034887314,-0.02418411709368229,-0.006530221085995436,0.926102340221405,0.001462454441934824,0.25892725586891174,0.23374974727630615,-0.09332168847322464,0.06695123016834259,-0.003773782402276993,0.01335771195590496,1.000853419303894,105.37456512451172,0.0,0.0,0.0
301867.903,-0.012520777061581612,-0.003382235998287797,0.001266301842406392,-0.02635251171886921,-0.02442634478211403,-0.006446837913244963,0.9263163805007935,7.494149031117558e-05,0.25971880555152893,-0.020042896270751953,-0.09370408952236176,0.2768717408180237,-0.004164071753621101,0.01301920972764492,1.001680850982666,105.3909683227539,0.0,0.0,0.0
301871.807,-0.012520777061581612,-0.003382235998287797,0.001266301842406392,-0.02635251171886921,-0.02442634478211403,-0.006446837913244963,0.9263163805007935,7.494149031117558e-05,0.25971880555152893,0.012611547484993935,0.14693129062652588,-0.016244418919086456,-0.004682238679379225,0.014165104366838932,1.0018529891967773,105.3909683227539,0.0,0.0,0.0
301875.793,-0.012520777061581612,-0.003382235998287797,0.001266301842406392,-0.02635251171886921,-0.02442634478211403,-0.006446837913244963,0.9263163805007935,7.494149031117558e-05,0.25971880555152893,0.08862432092428207,0.03704189881682396,0.059504345059394836,-0.005115850828588009,0.014699865132570267,1.0018603801727295,105.3909683227539,0.0,0.0,0.0
301879.721,-0.012786554172635078,-0.00362762319855392,0.0012027444317936897,-0.026802970096468925,-0.024651098996400833,-0.0062638563103973866,0.9255477786064148,-0.00035322297480888665,0.26052024960517883,0.22128501534461975,-0.0008252481929957867,0.024408292025327682,-0.0055380347184836864,0.01380318682640791,1.003365397453308,105.3909683227539,0.0,0.0,0.0
301883.678,-0.012228141538798809,-0.0031457897275686264,0.001386956311762333,-0.02375328540802002,-0.022066865116357803,-0.005431836470961571,0.9034814834594727,-0.026905475184321404,0.21699894964694977,-0.018243201076984406,0.14836899936199188,0.17931751906871796,-0.0064510153606534,0.013550249859690666,1.0034546852111816,105.3909683227539,0.0,0.0,0.0
301887.68,-0.01246833335608244,-0.003367437981069088,0.0013342528836801648,-0.024285225197672844,-0.022262806072831154,-0.005108102224767208,0.9035075306892395,-0.027419008314609528,0.21748733520507812,0.07094255089759827,-0.2067568004131317,-0.03934609517455101,-0.006399137899279594,0.01426196750253439,1.0031300783157349,105.34175109863281,0.0,0.0,0.0
301891.587,-0.01246833335608244,-0.003367437981069088,0.0013342528836801648,-0.024285225197672844,-0.022262806072831154,-0.005108102224767208,0.9035075306892395,-0.027419008314609528,0.21748733520507812,0.17486825585365295,-0.15715035796165466,-0.0972893238067627,-0.004944661632180214,0.014092356897890568,1.0027878284454346,105.34175109863281,0.0,0.0,0.0
301895.56,-0.01246833335608244,-0.003367437981069088,0.0013342528836801648,-0.024285225197672844,-0.022262806072831154,-0.005108102224767208,0.9035075306892395,-0.027419008314609528,0.21748733520507812,0.24904996156692505,0.0090694734826684,-0.08838196098804474,-0.004046572372317314,0.013969040475785732,1.000587821006775,105.34175109863281,0.0,0.0,0.0
301899.495,-0.012713514268398285,-0.003590908134356141,0.001284400001168251,-0.024751026183366776,-0.022431213408708572,-0.0048617590218782425,0.9041836857795715,-0.025997426360845566,0.21644720435142517,-0.11692894995212555,0.27808183431625366,-0.03944717347621918,-0.003564309561625123,0.015002661384642124,1.000362515449524,105.34175109863281,0.0,0.0,0.0
301903.449,-0.012284140102565289,-0.003265480976551771,0.0013341434532776475,-0.022055717185139656,-0.020563224330544472,-0.00477007357403636,0.8883079290390015,-0.049252819269895554,0.17585395276546478,-0.08739739656448364,0.07013756036758423,-0.0561039000749588,-0.00251967110671103,0.016143400222063065,1.0008416175842285,105.34175109863281,0.0,0.0,0.0
301907.447,-0.012505804188549519,-0.003471185453236103,0.00128680479247123,-0.022277137264609337,-0.020577680319547653,-0.004696960095316172,0.8870678544044495,-0.05074691027402878,0.17544184625148773,-0.03575095161795616,0.09322109073400497,0.19177977740764618,-0.0018485714681446552,0.01597777009010315,1.0020304918289185,105.36909484863281,0.0,0.0,0.0
301911.357,-0.008365415968000889,-0.001063286210410297,0.0018982125911861658,0.005296951159834862,-0.005926687736064196,-0.003208224195986986,0.7605748772621155,-0.28218716382980347,0.19154256582260132,-0.27200496196746826,0.3240644633769989,-0.13223430514335632,-0.00183779071085155,0.014728717505931854,1.0024560689926147,105.36909484863281,0.0,0.0,0.0
301915.326,-0.008365415968000889,-0.001063286210410297,0.0018982125911861658,0.005296951159834862,-0.005926687736064196,-0.003208224195986986,0.7605748772621155,-0.28218716382980347,0.19154256582260132,0.09274072200059891,-0.37554869055747986,0.07793666422367096,-0.0025283885188400745,0.014813557267189026,1.0019389390945435,105.36909484863281,0.0,0.0,0.0
301919.269,-0.00831100344657898,-0.0011216504499316216,0.0018672620644792914,0.005585493519902229,-0.005746209528297186,-0.00298138870857656,0.7586067914962769,-0.28276050090789795,0.19148491322994232,0.3720327913761139,-0.19853299856185913,-0.062185049057006836,-0.004204557277262211,0.0155005669221282,1.0008113384246826,105.36909484863281,0.0,0.0,0.0
301923.219,-0.00831100344657898,-0.0011216504499316216,0.0018672620644792914,0.005585493519902229,-0.005746209528297186,-0.00298138870857656,0.7586067914962769,-0.28276050090789795,0.19148491322994232,0.30559059977531433,-0.14201374351978302,0.13367076218128204,-0.005073286592960358,0.015479892492294312,0.9999556541442871,105.36909484863281,0.0,0.0,0.0
301927.213,-0.008828009478747845,-0.0007803762564435601,0.0021119187586009502,0.0023439968936145306,-0.0033771817106753588,-0.0010828552767634392,0.7431009411811829,-0.2530283033847809,0.23331318795681,0.09101346135139465,-0.3261418640613556,0.10885853320360184,-0.003988366108387709,0.015425222925841808,1.0007531642913818,105.25973510742188,0.0,0.0,0.0
301931.126,-0.008828009478747845,-0.0007803762564435601,0.0021119187586009502,0.0023439968936145306,-0.0033771817106753588,-0.0010828552767634392,0.7431009411811829,-0.2530283033847809,0.23331318795681,-0.15892842411994934,-0.18551135063171387,0.05552242323756218,-0.0029851009603589773,0.014785482548177242,1.001763105392456,105.25973510742188,0.0,0.0,0.0
301935.096,-0.008828009478747845,-0.0007803762564435601,0.0021119187586009502,0.0023439968936145306,-0.0033771817106753588,-0.0010828552767634392,0.7431009411811829,-0.2530283033847809,0.23331318795681,0.07688421756029129,0.009610550478100777,0.059346217662096024,-0.0029441588558256626,0.013806542381644249,1.0015428066253662,105.25973510742188,0.0,0.0,0.0
301939.032,-0.008804036304354668,-0.0008132730727083981,0.002101826248690486,0.00245058536529541,-0.0032021987717598677,-0.0009351841872557998,0.7420305609703064,-0.2508959174156189,0.23373869061470032,0.15140242874622345,-0.18418677151203156,0.14524197578430176,-0.0027429144829511642,0.0141350282356143,1.001739740371704,105.25973510742188,0.0,0.0,0.0
301942.991,-0.008804036304354668,-0.0008132730727083981,0.002101826248690486,0.00245058536529541,-0.0032021987717598677,-0.0009351841872557998,0.7420305609703064,-0.2508959174156189,0.23373869061470032,0.11815053224563599,-0.35758742690086365,0.1398683488368988,-0.0026029942091554403,0.013729588128626347,1.0023415088653564,105.25973510742188,0.0,0.0,0.0
301946.989,-0.008778725750744343,-0.0008448474109172821,0.0020934920758008957,0.0026115281507372856,-0.0031126912217587233,-0.0007312162779271603,0.7425605058670044,-0.24856682121753693,0.23449809849262238,-0.04744759947061539,0.19089584052562714,-0.14821533858776093,-0.0034968641120940447,0.01344089861959219,1.002514123916626,105.34175109863281,0.0,0.0,0.0
301950.901,-0.008778725750744343,-0.0008448474109172821,0.0020934920758008957,0.0026115281507372856,-0.0031126912217587233,-0.0007312162779271603,0.7425605058670044,-0.24856682121753693,0.23449809849262238,0.135893315076828,0.20262160897254944,0.22398510575294495,-0.004493446089327335,0.01293110940605402,1.002241849899292,105.34175109863281,0.0,0.0,0.0
301954.872,-0.008778725750744343,-0.0008448474109172821,0.0020934920758008957,0.0026115281507372856,-0.0031126912217587233,-0.0007312162779271603,0.7425605058670044,-0.24856682121753693,0.23449809849262238,0.09909361600875854,-0.12636986374855042,0.29664239287376404,-0.004383309744298458,0.013242017477750778,1.0021202564239502,105.34175109863281,0.0,0.0,0.0
301958.809,-0.008752500638365746,-0.000875878322403878,0.0020873560570180416,0.002633503405377269,-0.0030935138929635286,-0.0004955166950821877,0.7425048351287842,-0.24964310228824615,0.2355145364999771,0.16174164414405823,0.06070718169212341,0.06850186735391617,-0.004639619030058384,0.01255879458039999,1.0020205974578857,105.34175109863281,0.0,0.0,0.0
301962.761,-0.008752500638365746,-0.000875878322403878,0.0020873560570180416,0.002633503405377269,-0.0030935138929635286,-0.0004955166950821877,0.7425048351287842,-0.24964310228824615,0.2355145364999771,-0.2440960556268692,0.00478726252913475,-0.13174878060817719,-0.004671760834753513,0.012565632350742817,1.0015369653701782,105.34175109863281,0.0,0.0,0.0
301966.764,-0.009161713533103466,-0.00068507413379848,0.0023194225504994392,9.452928497921675e-05,-0.0019112569279968739,0.0011039234232157469,0.7316948175430298,-0.22865703701972961,0.28075075149536133,0.04869907349348068,0.024206332862377167,-0.2773803770542145,-0.00406638951972127,0.013157707639038563,1.0005038976669312,105.40190887451172,0.0,0.0,0.0
301970.668,-0.009161713533103466,-0.00068507413379848,0.0023194225504994392,9.452928497921675e-05,-0.0019112569279968739,0.0011039234232157469,0.7316948175430298,-0.22865703701972961,0.28075075149536133,0.06712260097265244,0.08315818011760712,0.14433744549751282,-0.0025588576681911945,0.013598969206213951,1.0007164478302002,105.40190887451172,0.0,0.0,0.0
301974.644,-0.009161713533103466,-0.00068507413379848,0.0023194225504994392,9.452928497921675e-05,-0.0019112569279968739,0.0011039234232157469,0.7316948175430298,-0.22865703701972961,0.28075075149536133,-0.31006497144699097,0.15779675543308258,0.15940514206886292,-0.0016423395136371255,0.013084671460092068,1.001380205154419,105.40190887451172,0.0,0.0,0.0
301978.582,-0.009160212241113186,-0.0007039129850454628,0.0023308959789574146,0.00020574322843458503,-0.0018565031932666898,0.0011911746114492416,0.7307298183441162,-0.2292024791240692,0.28058522939682007,-0.21149566769599915,0.134546160697937,-0.041273634880781174,-0.0020371610298752785,0.013350391760468483,1.001693844795227,105.40190887451172,0.0,0.0,0.0
301982.536,-0.009160212241113186,-0.0007039129850454628,0.0023308959789574146,0.00020574322843458503,-0.0018565031932666898,0.0011911746114492416,0.7307298183441162,-0.2292024791240692,0.28058522939682007,-0.0359041765332222,-0.07805538177490234,0.14044447243213654,-0.0035856927279382944,0.013689354993402958,1.0013865232467651,105.40190887451172,0.0,0.0,0.0
301986.535,-0.009157509543001652,-0.0007221518899314106,0.0023435954935848713,0.00033480089041404426,-0.001791254966519773,0.0013491448480635881,0.7285323739051819,-0.2292894870042801,0.28101637959480286,0.13591773808002472,-0.24066941440105438,0.11392956972122192,-0.004250998608767986,0.013231255114078522,1.0010762214660645,105.46752166748047,0.0,0.0,0.0
301990.436,-0.009157509543001652,-0.0007221518899314106,0.0023435954935848713,0.00033480089041404426,-0.001791254966519773,0.0013491448480635881,0.7285323739051819,-0.2292894870042801,0.28101637959480286,-0.03882521763443947,-0.28052428364753723,-0.05518326163291931,-0.005393149796873331,0.012966555543243885,1.000898003578186,105.46752166748047,0.0,0.0,0.0
301994.411,-0.009157509543001652,-0.0007221518899314106,0.0023435954935848713,0.00033480089041404426,-0.001791254966519773,0.0013491448480635881,0.7285323739051819,-0.2292894870042801,0.28101637959480286,-0.2459689974784851,0.15836943686008453,0.04611440747976303,-0.004208915401250124,0.012978934682905674,1.0008207559585571,105.46752166748047,0.0,0.0,0.0
301998.345,-0.009154532104730606,-0.0007399107562378049,0.0023575988598167896,0.00026075902860611677,-0.0017605021130293608,0.0014519274700433016,0.7274359464645386,-0.22743335366249084,0.28084105253219604,-0.0716446191072464,0.05957375839352608,0.22483351826667786,-0.003287923987954855,0.013664434663951397,1.0008270740509033,105.46752166748047,0.0,0.0,0.0
302002.298,-0.009154532104730606,-0.0007399107562378049,0.0023575988598167896,0.00026075902860611677,-0.0017605021130293608,0.0014519274700433016,0.7274359464645386,-0.22743335366249084,0.28084105253219604,0.14334635436534882,-0.0987541675567627,0.05706462636590004,-0.0033966684713959694,0.01349861454218626,1.0016083717346191,105.46752166748047,0.0,0.0,0.0
302006.301,-0.009151649661362171,-0.0007571527967229486,0.0023727728985249996,0.0003157079918310046,-0.0016878898022696376,0.0015833096113055944,0.7267414927482605,-0.227278932929039,0.28173208236694336,0.16618910431861877,-0.12081046402454376,-0.10573303699493408,-0.0032862580846995115,0.012810257263481617,1.002873420715332,105.42924499511719,0.0,0.0,0.0
302010.212,-0.009151649661362171,-0.0007571527967229486,0.0023727728985249996,0.0003157079918310046,-0.0016878898022696376,0.0015833096113055944,0.7267414927482605,-0.227278932929039,0.28173208236694336,-0.040081679821014404,0.043852124363183975,0.06687797605991364,-0.0036628544330596924,0.013427633792161942,1.0016868114471436,105.42924499511719,0.0,0.0,0.0
302014.183,-0.009151649661362171,-0.0007571527967229486,0.0023727728985249996,0.0003157079918310046,-0.0016878898022696376,0.0015833096113055944,0.7267414927482605,-0.227278932929039,0.28173208236694336,0.020963970571756363,-0.32772520184516907,-0.11472102254629135,-0.005244026426225901,0.013574311509728432,0.9993575811386108,105.42924499511719,0.0,0.0,0.0
302018.118,-0.009148435667157173,-0.0007737514097243547,0.002389419823884964,0.00032708232174627483,-0.0016318188281729817,0.0017464985139667988,0.7264274954795837,-0.22614558041095734,0.28104668855667114,-0.13715903460979462,-0.3609185814857483,0.08822667598724365,-0.006958048790693283,0.013209518045186996,0.9990881681442261,105.42924499511719,0.0,0.0,0.0
302022.069,-0.009148435667157173,-0.0007737514097243547,0.002389419823884964,0.00032708232174627483,-0.0016318188281729817,0.0017464985139667988,0.7264274954795837,-0.22614558041095734,0.28104668855667114,-0.03824485465884209,-0.06381727755069733,0.14321117103099823,-0.006211873609572649,0.013433904387056828,1.0002429485321045,105.42924499511719,0.0,0.0,0.0
302026.071,-0.009146354161202908,-0.0007897403556853533,0.0024067522026598454,8.92503303475678e-05,-0.0015659505734220147,0.001720338361337781,0.7250081896781921,-0.2237376719713211,0.28139057755470276,-0.15800650417804718,0.22789190709590912,0.010296621359884739,-0.0046627093106508255,0.013753238134086132,1.0009042024612427,105.43470764160156,0.0,0.0,0.0
302029.975,-0.009146354161202908,-0.0007897403556853533,0.0024067522026598454,8.92503303475678e-05,-0.0015659505734220147,0.001720338361337781,0.7250081896781921,-0.2237376719713211,0.28139057755470276,-0.08041732013225555,0.0927252545952797,0.05911252647638321,-0.004026550799608231,0.014672255143523216,1.0015766620635986,105.43470764160156,0.0,0.0,0.0
302033.955,-0.009146354161202908,-0.0007897403556853533,0.0024067522026598454,8.92503303475678e-05,-0.0015659505734220147,0.001720338361337781,0.7250081896781921,-0.2237376719713211,0.28139057755470276,-0.017706554383039474,-0.1178266704082489,0.013096458278596401,-0.004168637562543154,0.015318920835852623,1.0012038946151733,105.43470764160156,0.0,0.0,0.0
302037.89,-0.0091456463560462,-0.0008044925052672625,0.002424643374979496,5.226225039223209e-05,-0.0013844483764842153,0.0018583213677629828,0.7233431935310364,-0.22444117069244385,0.2814110815525055,0.13080912828445435,-0.36875078082084656,-0.07156922668218613,-0.0037319171242415905,0.015165180899202824,1.000002384185791,105.43470764160156,0.0,0.0,0.0
302041.841,-0.0091456463560462,-0.0008044925052672625,0.002424643374979496,5.226225039223209e-05,-0.0013844483764842153,0.0018583213677629828,0.7233431935310364,-0.22444117069244385,0.2814110815525055,-0.1261194497346878,-0.17098881304264069,0.10476627200841904,-0.0032791057601571083,0.01515095867216587,0.999775230884552,105.43470764160156,0.0,0.0,0.0
302045.841,-0.009507707320153713,-0.0006924298941157758,0.0027057246770709753,-0.002144047524780035,-0.0004691198992077261,0.0031938166357576847,0.7171658873558044,-0.2040265053510666,0.3098776936531067,-0.002803105628117919,-0.13806436955928802,0.13977603614330292,-0.003718411782756448,0.015102566219866276,1.0002504587173462,105.38550567626953,0.0,0.0,0.0
302049.749,-0.009507707320153713,-0.0006924298941157758,0.0027057246770709753,-0.002144047524780035,-0.0004691198992077261,0.0031938166357576847,0.7171658873558044,-0.2040265053510666,0.3098776936531067,-0.18173418939113617,0.2498793601989746,-0.11207541823387146,-0.0033106552436947823,0.015274890698492527,1.0006136894226074,105.38550567626953,0.0,0.0,0.0
302053.722,-0.009507707320153713,-0.0006924298941157758,0.0027057246770709753,-0.002144047524780035,-0.0004691198992077261,0.0031938166357576847,0.7171658873558044,-0.2040265053510666,0.3098776936531067,0.10634074360132217,-0.04751772806048393,0.024765271693468094,-0.0037735493388026953,0.015654968097805977,1.0001211166381836,105.38550567626953,0.0,0.0,0.0
302057.655,-0.009529147297143936,-0.0006957584409974515,0.0027379016391932964,-0.0021439113188534975,-0.00019653153140097857,0.0032419413328170776,0.7159634232521057,-0.2042553871870041,0.3096719980239868,0.020616939291357994,-0.025705350562930107,-0.02520427480340004,-0.00445906538516283,0.015361882746219635,1.0003632307052612,105.38550567626953,0.0,0.0,0.0
302061.61,-0.009529147297143936,-0.0006957584409974515,0.0027379016391932964,-0.0021439113188534975,-0.00019653153140097857,0.0032419413328170776,0.7159634232521057,-0.2042553871870041,0.3096719980239868,-0.04015121981501579,0.15585555136203766,-0.06792382895946503,-0.00405352795496583,0.014597933739423752,1.0000483989715576,105.38550567626953,0.0,0.0,0.0
302065.609,-0.009550890885293484,-0.0006964788190089166,0.002770449733361602,-0.00220484402962029,5.2512550610117614e-05,0.003268050728365779,0.715366780757904,-0.20466332137584686,0.30897068977355957,0.06647290289402008,0.27689695358276367,0.04680338874459267,-0.0036288106348365545,0.014098999090492725,0.9994896650314331,105.33628845214844,0.0,0.0,0.0
302069.522,-0.009550890885293484,-0.0006964788190089166,0.002770449733361602,-0.00220484402962029,5.2512550610117614e-05,0.003268050728365779,0.715366780757904,-0.20466332137584686,0.30897068977355957,-0.07652407139539719,-0.03559551015496254,0.07208827883005142,-0.004268216900527477,0.013866480439901352,0.9997236132621765,105.33628845214844,0.0,0.0,0.0
302073.495,-0.009550890885293484,-0.0006964788190089166,0.002770449733361602,-0.00220484402962029,5.2512550610117614e-05,0.003268050728365779,0.715366780757904,-0.20466332137584686,0.30897068977355957,-0.13881359994411469,-0.021301988512277603,-0.007253297604620457,-0.004403892904520035,0.013566534034907818,1.0012426376342773,105.33628845214844,0.0,0.0,0.0
302077.434,-0.00957320723682642,-0.0006952827679924667,0.002803162205964327,-0.002258530119433999,0.00018675056344363838,0.0032748302910476923,0.7141377925872803,-0.2053772658109665,0.3090519309043884,0.049056120216846466,-0.006054282654076815,-0.001180037623271346,-0.0035547055304050446,0.014800047501921654,1.0021635293960571,105.33628845214844,0.0,0.0,0.0
302081.388,-0.00957320723682642,-0.0006952827679924667,0.002803162205964327,-0.002258530119433999,0.00018675056344363838,0.0032748302910476923,0.7141377925872803,-0.2053772658109665,0.3090519309043884,0.05909667909145355,-0.03939470648765564,-0.12661615014076233,-0.004040093161165714,0.01548327598720789,1.0016337633132935,105.33628845214844,0.0,0.0,0.0
302085.383,-0.00972830131649971,-0.0006591115379706025,0.002934077987447381,-0.0030906624160706997,0.0006090498645789921,0.003930722828954458,0.7121516466140747,-0.19849906861782074,0.331484317779541,-0.03539552167057991,0.1703035682439804,-0.14885379374027252,-0.005434657912701368,0.015017833560705185,1.0008851289749146,105.38550567626953,0.0,0.0,0.0
302089.291,-0.00972830131649971,-0.0006591115379706025,0.002934077987447381,-0.0030906624160706997,0.0006090498645789921,0.003930722828954458,0.7121516466140747,-0.19849906861782074,0.331484317779541,0.0842052549123764,-0.09352221339941025,0.062073711305856705,-0.005711352918297052,0.01504550687968731,1.0010604858398438,105.38550567626953,0.0,0.0,0.0
302093.259,-0.00972830131649971,-0.0006591115379706025,0.002934077987447381,-0.0030906624160706997,0.0006090498645789921,0.003930722828954458,0.7121516466140747,-0.19849906861782074,0.331484317779541,0.3396187126636505,-0.27067485451698303,0.10888506472110748,-0.004622848238795996,0.01436130702495575,1.0020273923873901,105.38550567626953,0.0,0.0,0.0
302097.2,-0.009760156273841858,-0.0006518232985399663,0.0029740487225353718,-0.0032802927307784557,0.0008486649603582919,0.004063777159899473,0.7124024629592896,-0.19783392548561096,0.33114463090896606,-0.05959232896566391,0.17444148659706116,-0.14246919751167297,-0.00338924303650856,0.013682049699127674,1.001019835472107,105.38550567626953,0.0,0.0,0.0
302101.153,-0.009760156273841858,-0.0006518232985399663,0.0029740487225353718,-0.0032802927307784557,0.0008486649603582919,0.004063777159899473,0.7124024629592896,-0.19783392548561096,0.33114463090896606,-0.06480704247951508,0.0772794634103775,-0.23681268095970154,-0.003302669618278742,0.01411966048181057,0.9997242093086243,105.38550567626953,0.0,0.0,0.0
302105.153,-0.009818503633141518,-0.0006421396974474192,0.0030366068240255117,-0.0034412145614624023,0.0010058856569230556,0.00423813983798027,0.7118360996246338,-0.19689655303955078,0.35240671038627625,0.050394605845212936,-0.028304632753133774,0.07255372405052185,-0.003147939220070839,0.015037231147289276,0.9994716048240662,105.34722900390625,0.0,0.0,0.0
302109.057,-0.009818503633141518,-0.0006421396974474192,0.0030366068240255117,-0.0034412145614624023,0.0010058856569230556,0.00423813983798027,0.7118360996246338,-0.19689655303955078,0.35240671038627625,0.030791742727160454,-0.0028524084482342005,0.06726152449846268,-0.0021680318750441074,0.015908095985651016,0.9987249970436096,105.34722900390625,0.0,0.0,0.0
302113.034,-0.009818503633141518,-0.0006421396974474192,0.0030366068240255117,-0.0034412145614624023,0.0010058856569230556,0.00423813983798027,0.7118360996246338,-0.19689655303955078,0.35240671038627625,-0.08902616798877716,0.041667088866233826,-0.034860096871852875,-0.0024077575653791428,0.016566114500164986,0.9996351003646851,105.34722900390625,0.0,0.0,0.0
302116.974,-0.00985247828066349,-0.0006304281414486468,0.003078625537455082,-0.0033537123817950487,0.0013364959741011262,0.004165984690189362,0.7111906409263611,-0.19666141271591187,0.3524215519428253,-0.020143087953329086,-0.16636218130588531,0.18479308485984802,-0.003553038462996483,0.016000328585505486,1.001425862312317,105.34722900390625,0.0,0.0,0.0
302120.923,-0.00985247828066349,-0.0006304281414486468,0.003078625537455082,-0.0033537123817950487,0.0013364959741011262,0.004165984690189362,0.7111906409263611,-0.19666141271591187,0.3524215519428253,0.07040949165821075,-0.27905750274658203,0.1268187016248703,-0.004321574699133635,0.014652236364781857,1.0020804405212402,105.34722900390625,0.0,0.0,0.0
302124.924,-0.010997246950864792,-0.0021218035835772753,0.0015122460899874568,-0.008486748673021793,-0.005027538165450096,-0.001381015288643539,0.7600607872009277,-0.15749776363372803,0.31497886776924133,-0.20148679614067078,0.19644880294799805,-0.2762629985809326,-0.00510840630158782,0.014007702469825745,1.0021430253982544,105.35269165039062,0.0,0.0,0.0
302128.838,-0.010997246950864792,-0.0021218035835772753,0.0015122460899874568,-0.008486748673021793,-0.005027538165450096,-0.001381015288643539,0.7600607872009277,-0.15749776363372803,0.31497886776924133,-0.017831403762102127,-0.027476565912365913,0.013002541847527027,-0.00421252241358161,0.013757238164544106,1.0020198822021484,105.35269165039062,0.0,0.0,0.0
302132.811,-0.010997246950864792,-0.0021218035835772753,0.0015122460899874568,-0.008486748673021793,-0.005027538165450096,-0.001381015288643539,0.7600607872009277,-0.15749776363372803,0.31497886776924133,0.020790666341781616,-0.1545981466770172,-0.026836926117539406,-0.003493033116683364,0.014144884422421455,1.003335952758789,105.35269165039062,0.0,0.0,0.0
302136.742,-0.011082897894084454,-0.0021717792842537165,0.001499635400250554,-0.008643398061394691,-0.004967550281435251,-0.0011406735284253955,0.7586362361907959,-0.15737730264663696,0.3137800097465515,0.06833463907241821,0.013288334012031555,-0.017180252820253372,-0.003369135083630681,0.014423776417970657,1.0035704374313354,105.35269165039062,0.0,0.0,0.0
302140.693,-0.011082897894084454,-0.0021717792842537165,0.001499635400250554,-0.008643398061394691,-0.004967550281435251,-0.0011406735284253955,0.7586362361907959,-0.15737730264663696,0.3137800097465515,0.14173024892807007,-0.22796067595481873,0.03704313188791275,-0.003160459455102682,0.013949034735560417,1.0027941465377808,105.35269165039062,0.0,0.0,0.0
302144.698,-0.011255254037678242,-0.0024080949369817972,0.0012045555049553514,-0.009071499109268188,-0.005726989358663559,-0.001979795517399907,0.7651032209396362,-0.15361757576465607,0.308239609003067,-0.15991337597370148,-0.06880132853984833,-0.1618051677942276,-0.003094445914030075,0.013400972820818424,1.0006515979766846,105.3909683227539,0.0,0.0,0.0
302148.61,-0.011255254037678242,-0.0024080949369817972,0.0012045555049553514,-0.009071499109268188,-0.005726989358663559,-0.001979795517399907,0.7651032209396362,-0.15361757576465607,0.308239609003067,-0.21606361865997314,-0.25766852498054504,0.17587706446647644,-0.003502236446365714,0.013036485761404037,1.000892162322998,105.3909683227539,0.0,0.0,0.0
302152.589,-0.011255254037678242,-0.0024080949369817972,0.0012045555049553514,-0.009071499109268188,-0.005726989358663559,-0.001979795517399907,0.7651032209396362,-0.15361757576465607,0.308239609003067,-0.05032230168581009,0.007494903169572353,0.04156260937452316,-0.003600683994591236,0.013056865893304348,1.0012964010238647,105.3909683227539,0.0,0.0,0.0
302156.512,-0.011346317827701569,-0.0024654753506183624,0.001185254892334342,-0.009141271933913231,-0.005749061703681946,-0.0018798861419782043,0.7626625299453735,-0.15207986533641815,0.30831316113471985,0.17017266154289246,-0.1204766184091568,0.012784811668097973,-0.0035823718644678593,0.013035926036536694,1.0010632276535034,105.3909683227539,0.0,0.0,0.0
302160.459,-0.011346317827701569,-0.0024654753506183624,0.001185254892334342,-0.009141271933913231,-0.005749061703681946,-0.0018798861419782043,0.7626625299453735,-0.15207986533641815,0.30831316113471985,-0.060375865548849106,-0.057288844138383865,0.4018581211566925,-0.00432133162394166,0.01264602318406105,1.0028380155563354,105.3909683227539,0.0,0.0,0.0
302164.464,-0.011399369686841965,-0.0025162685196846724,0.0010039417538791895,-0.009165639989078045,-0.005747604183852673,-0.002549618948251009,0.7623354196548462,-0.15136872231960297,0.30961695313453674,-0.08654630929231644,0.29596585035324097,-0.00671923253685236,-0.004799060057848692,0.012482286430895329,1.0035922527313232,105.38550567626953,0.0,0.0,0.0
302168.382,-0.011399369686841965,-0.0025162685196846724,0.0010039417538791895,-0.009165639989078045,-0.005747604183852673,-0.002549618948251009,0.7623354196548462,-0.15136872231960297,0.30961695313453674,0.019780777394771576,0.06387787312269211,-0.19330748915672302,-0.005130581557750702,0.01403855811804533,1.0037295818328857,105.38550567626953,0.0,0.0,0.0
302172.349,-0.011399369686841965,-0.0025162685196846724,0.0010039417538791895,-0.009165639989078045,-0.005747604183852673,-0.002549618948251009,0.7623354196548462,-0.15136872231960297,0.30961695313453674,0.06823217123746872,-0.2443210780620575,-0.2102012187242508,-0.004127041436731815,0.01479701790958643,1.0030332803726196,105.38550567626953,0.0,0.0,0.0
302176.281,-0.011492077261209488,-0.0025735702365636826,0.0009802284184843302,-0.009375842288136482,-0.005712709855288267,-0.0021925941109657288,0.7614068984985352,-0.15196122229099274,0.3079775869846344,0.2811605632305145,-0.024156754836440086,0.08626489341259003,-0.004219507798552513,0.014165935106575489,1.0027235746383667,105.38550567626953,0.0,0.0,0.0
302180.236,-0.011492077261209488,-0.0025735702365636826,0.0009802284184843302,-0.009375842288136482,-0.005712709855288267,-0.0021925941109657288,0.7614068984985352,-0.15196122229099274,0.3079775869846344,0.05032357573509216,-0.36043083667755127,0.19448712468147278,-0.004406280815601349,0.014049000106751919,1.0036405324935913,105.38550567626953,0.0,0.0,0.0
302184.238,-0.011490384116768837,-0.002580154687166214,0.0008782920194789767,-0.009262191131711006,-0.005395711399614811,-0.002410891931504011,0.7623022794723511,-0.14989078044891357,0.30855900049209595,0.26964762806892395,0.13071933388710022,0.02077222615480423,-0.003492445684969425,0.015277576632797718,1.0047277212142944,105.36909484863281,0.0,0.0,0.0
302188.146,-0.011490384116768837,-0.002580154687166214,0.0008782920194789767,-0.009262191131711006,-0.005395711399614811,-0.002410891931504011,0.7623022794723511,-0.14989078044891357,0.30855900049209595,0.20395059883594513,0.2935276925563812,-0.0010587851284071803,-0.003292838577181101,0.015596682205796242,1.0037375688552856,105.36909484863281,0.0,0.0,0.0
302192.116,-0.011490384116768837,-0.002580154687166214,0.0008782920194789767,-0.009262191131711006,-0.005395711399614811,-0.002410891931504011,0.7623022794723511,-0.14989078044891357,0.30855900049209595,0.020781150087714195,0.16965436935424805,-0.0322517454624176,-0.004005596973001957,0.01590583845973015,1.0025911331176758,105.36909484863281,0.0,0.0,0.0
302196.055,-0.011583440005779266,-0.0026330440305173397,0.0008561119902879,-0.009349058382213116,-0.005182158201932907,-0.0020246608182787895,0.7633464336395264,-0.1518840491771698,0.30831965804100037,0.005274074152112007,-0.4248245060443878,-0.27392396330833435,-0.005106382537633181,0.01677738130092621,1.0024797916412354,105.36909484863281,0.0,0.0,0.0
302200.005,-0.011583440005779266,-0.0026330440305173397,0.0008561119902879,-0.009349058382213116,-0.005182158201932907,-0.0020246608182787895,0.7633464336395264,-0.1518840491771698,0.30831965804100037,0.18210962414741516,-0.3617445230484009,-0.03332097828388214,-0.005650568287819624,0.0159461610019207,1.0018342733383179,105.36909484863281,0.0,0.0,0.0
302204.012,-0.011537416838109493,-0.0026126073207706213,0.0008306566742248833,-0.009181697852909565,-0.004593095742166042,-0.0019446098012849689,0.7609459161758423,-0.15218742191791534,0.2796846628189087,-0.13353870809078217,-0.0830099955201149,-0.05758552625775337,-0.005286900792270899,0.01435888558626175,1.0013065338134766,105.34175109863281,0.0,0.0,0.0
302207.917,-0.011537416838109493,-0.0026126073207706213,0.0008306566742248833,-0.009181697852909565,-0.004593095742166042,-0.0019446098012849689,0.7609459161758423,-0.15218742191791534,0.2796846628189087,-0.2382291555404663,0.019625842571258545,0.04793091490864754,-0.004694222938269377,0.012950705364346504,1.0011192560195923,105.34175109863281,0.0,0.0,0.0
302211.887,-0.011537416838109493,-0.0026126073207706213,0.0008306566742248833,-0.009181697852909565,-0.004593095742166042,-0.0019446098012849689,0.7609459161758423,-0.15218742191791534,0.2796846628189087,0.0026097390800714493,0.0899544358253479,0.13941232860088348,-0.004846531897783279,0.012851851992309093,1.0018538236618042,105.34175109863281,0.0,0.0,0.0
302215.829,-0.011630346067249775,-0.0026584952138364315,0.0008119200356304646,-0.0094041982665658,-0.004584477748721838,-0.0018022910226136446,0.7586569786071777,-0.1519208550453186,0.27981889247894287,0.11066685616970062,0.1368737816810608,-0.14085452258586884,-0.004323708824813366,0.014315005391836166,1.0021733045578003,105.34175109863281,0.0,0.0,0.0
302219.77,-0.011630346067249775,-0.0026584952138364315,0.0008119200356304646,-0.0094041982665658,-0.004584477748721838,-0.0018022910226136446,0.7586569786071777,-0.1519208550453186,0.27981889247894287,0.1332603394985199,-0.09949057549238205,-0.14832766354084015,-0.0036829595919698477,0.014740880578756332,1.0017400979995728,105.34175109863281,0.0,0.0,0.0
302223.774,-0.01160877663642168,-0.0027388143353164196,0.0007417731685563922,-0.009107524529099464,-0.004662607796490192,-0.0020143475849181414,0.760547935962677,-0.15526537597179413,0.30278539657592773,0.2650092542171478,-0.06557930260896683,-0.2084929645061493,-0.003910886123776436,0.014760845340788364,1.0019142627716064,105.412841796875,0.0,0.0,0.0
302227.684,-0.01160877663642168,-0.0027388143353164196,0.0007417731685563922,-0.009107524529099464,-0.004662607796490192,-0.0020143475849181414,0.760547935962677,-0.15526537597179413,0.30278539657592773,0.057398367673158646,-0.06989802420139313,0.13032475113868713,-0.0038377626333385706,0.0153427729383111,1.0014961957931519,105.412841796875,0.0,0.0,0.0
302231.662,-0.01160877663642168,-0.0027388143353164196,0.0007417731685563922,-0.009107524529099464,-0.004662607796490192,-0.0020143475849181414,0.760547935962677,-0.15526537597179413,0.30278539657592773,-0.11433514952659607,-0.10512962192296982,0.10608907043933868,-0.0034156562760472298,0.015408644452691078,1.001137375831604,105.412841796875,0.0,0.0,0.0
302235.589,-0.011700370348989964,-0.0027845280710607767,0.0007224528817459941,-0.009211283177137375,-0.00448013748973608,-0.0018492714734748006,0.7607211470603943,-0.1543402224779129,0.3026657998561859,0.036300912499427795,-0.03709491342306137,-0.07115212827920914,-0.0033894958905875683,0.014990869909524918,1.001065969467163,105.412841796875,0.0,0.0,0.0
302239.54,-0.011700370348989964,-0.0027845280710607767,0.0007224528817459941,-0.009211283177137375,-0.00448013748973608,-0.0018492714734748006,0.7607211470603943,-0.1543402224779129,0.3026657998561859,0.07457385957241058,0.11644458770751953,-0.036142319440841675,-0.0029055324848741293,0.01478717103600502,1.0011519193649292,105.412841796875,0.0,0.0,0.0
302243.547,-0.011792710982263088,-0.0028285018634051085,0.000704545178450644,-0.009256768971681595,-0.0043145897798240185,-0.001731840311549604,0.7600908279418945,-0.1543518751859665,0.3020978271961212,-0.09108195453882217,0.09253324568271637,0.17991076409816742,-0.002479814924299717,0.015258166939020157,1.0003753900527954,105.3636245727539,0.0,0.0,0.0
302247.462,-0.011792710982263088,-0.0028285018634051085,0.000704545178450644,-0.009256768971681595,-0.0043145897798240185,-0.001731840311549604,0.7600908279418945,-0.1543518751859665,0.3020978271961212,0.2577704191207886,0.3512020409107208,0.22105784714221954,-0.0022776713594794273,0.015431413426995277,0.9998406767845154,105.3636245727539,0.0,0.0,0.0
302251.431,-0.011792710982263088,-0.0028285018634051085,0.000704545178450644,-0.009256768971681595,-0.0043145897798240185,-0.001731840311549604,0.7600908279418945,-0.1543518751859665,0.3020978271961212,0.051698505878448486,-0.11781588196754456,0.04438430443406105,-0.002679579658433795,0.015194258652627468,0.9996102452278137,105.3636245727539,0.0,0.0,0.0
