timestamp,stateEstimate.x,stateEstimate.y,stateEstimate.z,stateEstimate.vx,stateEstimate.vy,stateEstimate.vz,stateEstimate.roll,stateEstimate.pitch,stateEstimate.yaw,gyro.x,gyro.y,gyro.z,acc.x,acc.y,acc.z,baro.asl,lighthouse.x,lighthouse.y,lighthouse.z
358715.393,0.008579728193581104,0.0053467112593352795,0.0055460636503994465,0.006148792803287506,0.0070887100882828236,0.009821265004575253,0.7739524245262146,0.0027500551659613848,5.273739814758301,-0.05902103707194328,0.18389856815338135,-0.11588957905769348,-0.001894693006761372,0.015628313645720482,1.0021874904632568,105.39643096923828,0.0,0.0,0.0
358719.327,0.008579728193581104,0.0053467112593352795,0.0055460636503994465,0.006148792803287506,0.0070887100882828236,0.009821265004575253,0.7739524245262146,0.0027500551659613848,5.273739814758301,-0.1619683802127838,0.04559365659952164,0.06711377203464508,-0.0019487321842461824,0.015204323455691338,1.0032788515090942,105.39643096923828,0.0,0.0,0.0
358723.289,0.004740261472761631,0.002418692223727703,0.0032903074752539396,0.0003327169397380203,-0.0013695170637220144,-0.004076486453413963,0.8365928530693054,0.05279023200273514,5.254122257232666,0.17693442106246948,0.04577982425689697,0.016006240621209145,-0.0014336345484480262,0.015066743828356266,1.0035353899002075,105.39643096923828,0.0,0.0,0.0
358727.286,0.007671969477087259,0.004113675095140934,0.003573242574930191,0.005841718055307865,0.00427356967702508,-0.0028450568206608295,0.7961980700492859,0.0043283854611217976,5.287536144256592,0.08148015290498734,-0.03878675773739815,0.017865849658846855,-0.0005242281476967037,0.014570306986570358,1.0026075839996338,105.35816192626953,0.0,0.0,0.0
358731.206,0.007729787845164537,0.0041567799635231495,0.003546347375959158,0.005722321104258299,0.004346819128841162,-0.002533667255192995,0.7962499856948853,0.004312642849981785,5.282414436340332,0.048835109919309616,0.041696760803461075,-0.17869456112384796,-0.00019391163368709385,0.01352785062044859,1.0016857385635376,105.35816192626953,0.0,0.0,0.0
358735.17,0.00729649793356657,0.004107316955924034,0.00407517421990633,0.004803929477930069,0.004104950465261936,0.001853054272942245,0.7971317172050476,0.011861124075949192,5.343011856079102,0.028493443503975868,0.3370649218559265,-0.16454750299453735,-0.0007751437369734049,0.01415330357849598,1.001746416091919,105.35816192626953,0.0,0.0,0.0
358739.098,0.0060475971549749374,0.003358776681125164,0.002573311096057296,0.002371917711570859,0.0015610819682478905,-0.010151351802051067,0.8152397274971008,0.03237238526344299,5.337157249450684,-0.09602958709001541,0.013286243192851543,-0.05059141665697098,-0.0019501543138176203,0.015001630410552025,1.002063274383545,105.35816192626953,0.0,0.0,0.0
358743.059,0.006070635747164488,0.0033742610830813646,0.002472725696861744,0.002235967665910721,0.0015354534843936563,-0.009965372271835804,0.8144821524620056,0.030583130195736885,5.330232620239258,0.1910502165555954,-0.17745845019817352,0.2191515415906906,-0.00311899371445179,0.015310339629650116,1.002603530883789,105.35816192626953,0.0,0.0,0.0
358747.059,0.006070635747164488,0.0033742610830813646,0.002472725696861744,0.002235967665910721,0.0015354534843936563,-0.009965372271835804,0.8144821524620056,0.030583130195736885,5.330232620239258,0.11712229996919632,-0.251842200756073,0.05456637591123581,-0.00310724088922143,0.015736950561404228,1.0025341510772705,105.35269165039062,0.0,0.0,0.0
358750.961,0.006091257091611624,0.003390052355825901,0.0023743584752082825,0.0018884337041527033,0.001622491399757564,-0.009707690216600895,0.8147311210632324,0.03239167109131813,5.3260650634765625,0.12207107990980148,0.04450039193034172,-0.01080263126641512,-0.001657720422372222,0.015641195699572563,1.0031051635742188,105.35269165039062,0.0,0.0,0.0
358754.932,0.006091257091611624,0.003390052355825901,0.0023743584752082825,0.0018884337041527033,0.001622491399757564,-0.009707690216600895,0.8147311210632324,0.03239167109131813,5.3260650634765625,-0.14123395085334778,0.3002326488494873,0.009967871941626072,-0.0007510710274800658,0.01624848134815693,1.0047459602355957,105.35269165039062,0.0,0.0,0.0
358758.865,0.005210759583860636,0.0026877589989453554,0.0010189226595684886,-0.001135832630097866,-0.0013612594921141863,-0.021340711042284966,0.8352287411689758,0.05642443522810936,5.320731163024902,-0.0029162715654820204,-0.051920417696237564,-0.04217837005853653,-0.00011495111539261416,0.016425618901848793,1.0053575038909912,105.35269165039062,0.0,0.0,0.0
358762.826,0.005198406986892223,0.0026747656520456076,0.0008076929952949286,-0.0013348037609830499,-0.0012375968508422375,-0.020904814824461937,0.834126353263855,0.05482833459973335,5.3152899742126465,-0.06739865243434906,-0.496165931224823,0.19568146765232086,-0.00044616946252062917,0.016030510887503624,1.0061839818954468,105.35269165039062,0.0,0.0,0.0
358766.832,0.005198406986892223,0.0026747656520456076,0.0008076929952949286,-0.0013348037609830499,-0.0012375968508422375,-0.020904814824461937,0.834126353263855,0.05482833459973335,5.3152899742126465,0.11565877497196198,-0.3517278730869293,0.08367069810628891,-0.0015993525739759207,0.014630530029535294,1.004844069480896,105.41830444335938,0.0,0.0,0.0
358770.739,0.0051840911619365215,0.002662694314494729,0.0006013460224494338,-0.0015285148983821273,-0.0011768211843445897,-0.02036418206989765,0.8335070013999939,0.058304253965616226,5.311093330383301,-0.10934476554393768,0.20432651042938232,0.004914338234812021,-0.0027851241175085306,0.014125453308224678,1.0027203559875488,105.41830444335938,0.0,0.0,0.0
358774.707,0.005086810793727636,0.002148857805877924,0.0012965648202225566,-0.0016574790934100747,-0.003990480210632086,-0.014273746870458126,0.852799117565155,0.06149608641862869,5.367897987365723,0.16229143738746643,-0.06859090924263,-0.10829891264438629,-0.0029155039228498936,0.013422981835901737,1.000777006149292,105.41830444335938,0.0,0.0,0.0
358778.637,0.005086810793727636,0.002148857805877924,0.0012965648202225566,-0.0016574790934100747,-0.003990480210632086,-0.014273746870458126,0.852799117565155,0.06149608641862869,5.367897987365723,0.19826070964336395,-0.08946453034877777,0.1492626816034317,-0.0015420274576172233,0.012729467824101448,0.9996887445449829,105.41830444335938,0.0,0.0,0.0
358782.596,0.0035946446005254984,0.0007540766964666545,0.0008426894200965762,-0.006722136400640011,-0.010681797750294209,-0.016484389081597328,0.895935595035553,0.09775201976299286,5.283052921295166,-0.019529638811945915,-0.2651897668838501,-0.0043954141438007355,-0.0005166864721104503,0.012775658629834652,1.0007020235061646,105.41830444335938,0.0,0.0,0.0
358786.601,0.0035946446005254984,0.0007540766964666545,0.0008426894200965762,-0.006722136400640011,-0.010681797750294209,-0.016484389081597328,0.895935595035553,0.09775201976299286,5.283052921295166,-0.09720329940319061,0.17672303318977356,-0.12947379052639008,-0.0008390742586925626,0.012155652046203613,1.001166820526123,105.42924499511719,0.0,0.0,0.0
358790.51,0.0035263681784272194,0.0006455873954109848,0.0006783262360841036,-0.0069342018105089664,-0.011015682481229305,-0.01638766936957836,0.8944457173347473,0.09801962971687317,5.2775092124938965,-0.14033567905426025,0.043810319155454636,0.11394334584474564,-0.0014784772647544742,0.01245687436312437,1.0013822317123413,105.42924499511719,0.0,0.0,0.0
358794.475,0.0035263681784272194,0.0006455873954109848,0.0006783262360841036,-0.0069342018105089664,-0.011015682481229305,-0.01638766936957836,0.8944457173347473,0.09801962971687317,5.2775092124938965,0.1579885482788086,-0.34713834524154663,0.1805046647787094,-0.0015901050064712763,0.013431883417069912,1.0004032850265503,105.42924499511719,0.0,0.0,0.0
358798.413,0.0032529921736568213,0.00021100923186168075,-0.0002559875720180571,-0.008232641965150833,-0.013496126048266888,-0.024108806625008583,0.9120846390724182,0.10893552005290985,5.269952774047852,0.0430520698428154,-0.12486597895622253,0.08092029392719269,-0.0009034202666953206,0.01415496040135622,0.9998446702957153,105.42924499511719,0.0,0.0,0.0
358802.373,0.0031691743060946465,7.459243352059275e-05,-0.0004967303248122334,-0.008532238192856312,-0.013786845840513706,-0.024039117619395256,0.9115741848945618,0.11052040010690689,5.266108512878418,0.04466439038515091,-0.1356727033853531,-0.05715490132570267,-0.00014756272139493376,0.014931094832718372,0.9991459846496582,105.42924499511719,0.0,0.0,0.0
358806.364,0.0031691743060946465,7.459243352059275e-05,-0.0004967303248122334,-0.008532238192856312,-0.013786845840513706,-0.024039117619395256,0.9115741848945618,0.11052040010690689,5.266108512878418,-0.09624512493610382,-0.1447456032037735,0.2550593316555023,0.0006304426933638752,0.014017715118825436,0.9995320439338684,105.40190887451172,0.0,0.0,0.0
358810.285,0.0030830230098217726,-6.410130299627781e-05,-0.0007373580010607839,-0.00869933981448412,-0.01395148690789938,-0.024085799232125282,0.9102944731712341,0.11147061735391617,5.261594295501709,-0.20284385979175568,0.0801924392580986,0.11507081240415573,0.00019917589088436216,0.01303398609161377,1.0004045963287354,105.40190887451172,0.0,0.0,0.0
358814.259,0.0030830230098217726,-6.410130299627781e-05,-0.0007373580010607839,-0.00869933981448412,-0.01395148690789938,-0.024085799232125282,0.9102944731712341,0.11147061735391617,5.261594295501709,0.19629384577274323,-0.22872091829776764,-0.13413162529468536,-0.0006858725682832301,0.013497035950422287,1.0013738870620728,105.40190887451172,0.0,0.0,0.0
358818.178,0.0030830230098217726,-6.410130299627781e-05,-0.0007373580010607839,-0.00869933981448412,-0.01395148690789938,-0.024085799232125282,0.9102944731712341,0.11147061735391617,5.261594295501709,0.1145833432674408,-0.04032236710190773,-0.14295756816864014,-0.001193069270811975,0.013427642174065113,1.001499891281128,105.40190887451172,0.0,0.0,0.0
358822.141,0.0023789131082594395,-0.0007075211615301669,-0.0007732672384008765,-0.011938173323869705,-0.017083801329135895,-0.022471971809864044,0.9281399250030518,0.13410422205924988,5.180565357208252,0.003823904087767005,-0.270277202129364,0.02224106714129448,-0.0012403841828927398,0.013219097629189491,1.0013980865478516,105.40190887451172,0.0,0.0,0.0
358826.137,0.0023789131082594395,-0.0007075211615301669,-0.0007732672384008765,-0.011938173323869705,-0.017083801329135895,-0.022471971809864044,0.9281399250030518,0.13410422205924988,5.180565357208252,0.019182352349162102,-0.360636442899704,0.04540230706334114,-0.0001059438000083901,0.012981681153178215,1.001437783241272,105.40190887451172,0.0,0.0,0.0
358830.054,0.002258231397718191,-0.0008800000068731606,-0.0009972596308216453,-0.012199805118143559,-0.017411239445209503,-0.02232581377029419,0.9272711277008057,0.1367134004831314,5.1756672859191895,-0.12292224913835526,-0.07293085008859634,0.10313674062490463,0.0011743726208806038,0.013381251133978367,1.0011425018310547,105.40190887451172,0.0,0.0,0.0
358834.019,0.002258231397718191,-0.0008800000068731606,-0.0009972596308216453,-0.012199805118143559,-0.017411239445209503,-0.02232581377029419,0.9272711277008057,0.1367134004831314,5.1756672859191895,-0.08919275552034378,0.16262051463127136,-0.19872386753559113,0.0007065883255563676,0.014153068885207176,1.0014171600341797,105.40190887451172,0.0,0.0,0.0
358837.954,0.002258231397718191,-0.0008800000068731606,-0.0009972596308216453,-0.012199805118143559,-0.017411239445209503,-0.02232581377029419,0.9272711277008057,0.1367134004831314,5.1756672859191895,-0.013872910290956497,0.08507326990365982,0.0972263440489769,0.00016165521810762584,0.014990528114140034,1.0015537738800049,105.40190887451172,0.0,0.0,0.0
358841.91,0.001848368439823389,-0.0011839638464152813,-0.0009666788973845541,-0.014014343731105328,-0.018359728157520294,-0.02043130062520504,0.9298913478851318,0.14707273244857788,5.095331192016602,0.2621624171733856,-0.09696095436811447,-0.18775667250156403,-0.0001105682531488128,0.016322366893291473,1.0018160343170166,105.40190887451172,0.0,0.0,0.0
358845.913,0.001848368439823389,-0.0011839638464152813,-0.0009666788973845541,-0.014014343731105328,-0.018359728157520294,-0.02043130062520504,0.9298913478851318,0.14707273244857788,5.095331192016602,0.14128825068473816,-0.14866365492343903,-0.15433576703071594,-0.0005873810150660574,0.016862336546182632,1.0014400482177734,105.44564819335938,0.0,0.0,0.0
358849.817,0.001848368439823389,-0.0011839638464152813,-0.0009666788973845541,-0.014014343731105328,-0.018359728157520294,-0.02043130062520504,0.9298913478851318,0.14707273244857788,5.095331192016602,-0.22784607112407684,-0.02163372002542019,0.17972292006015778,-0.0021035370882600546,0.015855606645345688,1.000441551208496,105.44564819335938,0.0,0.0,0.0
358853.783,0.002057371661067009,-0.0018198698526248336,-0.0007334892288781703,-0.012018218636512756,-0.021392228081822395,-0.017422938719391823,0.9529768824577332,0.13428625464439392,5.1579270362854,-0.19013047218322754,0.11839032918214798,0.16963499784469604,-0.002430840628221631,0.014494012109935284,1.0004017353057861,105.44564819335938,0.0,0.0,0.0
358857.718,0.002057371661067009,-0.0018198698526248336,-0.0007334892288781703,-0.012018218636512756,-0.021392228081822395,-0.017422938719391823,0.9529768824577332,0.13428625464439392,5.1579270362854,0.15413141250610352,0.1316339075565338,-0.13857294619083405,-0.001170738018117845,0.013691824860870838,1.000451683998108,105.44564819335938,0.0,0.0,0.0
358861.68,0.001935125794261694,-0.002034897916018963,-0.0009074631961993873,-0.012432914227247238,-0.02161255292594433,-0.01737106777727604,0.9508570432662964,0.13338692486286163,5.1536173820495605,0.10977394133806229,0.009398638270795345,0.09345004707574844,-0.000705755315721035,0.01345689594745636,1.0004267692565918,105.44564819335938,0.0,0.0,0.0
358865.687,0.001935125794261694,-0.002034897916018963,-0.0009074631961993873,-0.012432914227247238,-0.02161255292594433,-0.01737106777727604,0.9508570432662964,0.13338692486286163,5.1536173820495605,0.15741659700870514,-0.24277250468730927,0.00502046151086688,-0.0005714418948628008,0.013446752913296223,1.0001055002212524,105.412841796875,0.0,0.0,0.0
358869.595,0.001935125794261694,-0.002034897916018963,-0.0009074631961993873,-0.012432914227247238,-0.02161255292594433,-0.01737106777727604,0.9508570432662964,0.13338692486286163,5.1536173820495605,-0.014548989944159985,-0.00799458846449852,0.0651065930724144,-0.0010886830277740955,0.014260166324675083,1.0002878904342651,105.412841796875,0.0,0.0,0.0
358873.557,0.001961230067536235,-0.002436030190438032,-0.000900587416253984,-0.011709241196513176,-0.023191237822175026,-0.016222786158323288,0.960384726524353,0.12863852083683014,5.217609405517578,-0.15370987355709076,-0.11371555924415588,0.04258876293897629,-0.0016551255248486996,0.014549316838383675,1.0011029243469238,105.412841796875,0.0,0.0,0.0
358877.494,0.001961230067536235,-0.002436030190438032,-0.000900587416253984,-0.011709241196513176,-0.023191237822175026,-0.016222786158323288,0.960384726524353,0.12863852083683014,5.217609405517578,0.014790190383791924,-0.138978511095047,0.10711231827735901,-0.0007963937241584063,0.015353405848145485,1.0020860433578491,105.412841796875,0.0,0.0,0.0
358881.453,0.001842508208937943,-0.002669155364856124,-0.001062255585566163,-0.012037297710776329,-0.023432984948158264,-0.016110049560666084,0.9587494134902954,0.1292729526758194,5.213216781616211,0.23391035199165344,-0.004889870528131723,0.009387890808284283,-8.07753240223974e-05,0.01583211123943329,1.0020573139190674,105.412841796875,0.0,0.0,0.0
358885.451,0.001842508208937943,-0.002669155364856124,-0.001062255585566163,-0.012037297710776329,-0.023432984948158264,-0.016110049560666084,0.9587494134902954,0.1292729526758194,5.213216781616211,-0.07090263068675995,0.06800106167793274,0.001808533095754683,-0.00014085019938647747,0.014396531507372856,1.00098717212677,105.4073715209961,0.0,0.0,0.0
358889.356,0.0017210228834301233,-0.0029044358525425196,-0.0012225565733388066,-0.012261949479579926,-0.02362225390970707,-0.015949340537190437,0.9584473967552185,0.1290452778339386,5.208128929138184,-0.023098882287740707,-0.03740602731704712,0.13653431832790375,-0.0001746517518768087,0.012241252698004246,0.9996784329414368,105.4073715209961,0.0,0.0,0.0
358893.33,0.001725624199025333,-0.003068128600716591,-0.001480376347899437,-0.012182053178548813,-0.024816248565912247,-0.017612721771001816,0.9675137400627136,0.12915681302547455,5.2063469886779785,-0.07945290207862854,-0.24097272753715515,0.08251780271530151,-0.001021896954625845,0.012208769097924232,1.0001822710037231,105.4073715209961,0.0,0.0,0.0
358897.26,0.001725624199025333,-0.003068128600716591,-0.001480376347899437,-0.012182053178548813,-0.024816248565912247,-0.017612721771001816,0.9675137400627136,0.12915681302547455,5.2063469886779785,0.07930406183004379,0.10546384006738663,0.20127978920936584,-0.002033758210018277,0.012942291796207428,1.000144600868225,105.4073715209961,0.0,0.0,0.0
358901.222,0.0018416453385725617,-0.002894567558541894,-0.0012148640817031264,-0.01115679182112217,-0.02240043878555298,-0.014980308711528778,0.9465284943580627,0.11728045344352722,5.124526023864746,0.2081768959760666,0.2217482477426529,-0.09644017368555069,-0.0021269777789711952,0.014914840459823608,1.0010154247283936,105.4073715209961,0.0,0.0,0.0
358905.218,0.0018416453385725617,-0.002894567558541894,-0.0012148640817031264,-0.01115679182112217,-0.02240043878555298,-0.014980308711528778,0.9465284943580627,0.11728045344352722,5.124526023864746,0.3127383291721344,0.14422544836997986,-0.22610649466514587,-0.0019196512876078486,0.015400857664644718,1.0020724534988403,105.39643096923828,0.0,0.0,0.0
358909.13,0.0018416453385725617,-0.002894567558541894,-0.0012148640817031264,-0.01115679182112217,-0.02240043878555298,-0.014980308711528778,0.9465284943580627,0.11728045344352722,5.124526023864746,0.13556991517543793,-0.16243313252925873,-0.004814976826310158,-0.002276492537930608,0.014836904592812061,1.0016913414001465,105.39643096923828,0.0,0.0,0.0
358913.092,0.0017411153530701995,-0.003312115091830492,-0.0014503649435937405,-0.011492887511849403,-0.02362762950360775,-0.015203781425952911,0.955717146396637,0.1162705272436142,5.178299427032471,0.09616058319807053,-0.1540130227804184,0.08479928225278854,-0.002175552537664771,0.013983669690787792,1.0020344257354736,105.39643096923828,0.0,0.0,0.0
358917.031,0.0017411153530701995,-0.003312115091830492,-0.0014503649435937405,-0.011492887511849403,-0.02362762950360775,-0.015203781425952911,0.955717146396637,0.1162705272436142,5.178299427032471,0.03890809416770935,0.0747169703245163,0.04393104836344719,-0.0022883890196681023,0.012790217064321041,1.0023598670959473,105.39643096923828,0.0,0.0,0.0
358920.994,0.0016242320416495204,-0.0035501315724104643,-0.0016013511922210455,-0.011885952204465866,-0.02397485263645649,-0.014992661774158478,0.9552993178367615,0.11674445867538452,5.173539638519287,-0.16018442809581757,0.0737956315279007,-0.1695864498615265,-0.0026104131247848272,0.012495379894971848,1.001076340675354,105.39643096923828,0.0,0.0,0.0
358924.99,0.0016242320416495204,-0.0035501315724104643,-0.0016013511922210455,-0.011885952204465866,-0.02397485263645649,-0.014992661774158478,0.9552993178367615,0.11674445867538452,5.173539638519287,-0.00472700409591198,0.0739639475941658,-0.15124621987342834,-0.00316897826269269,0.013429355807602406,1.000309705734253,105.440185546875,0.0,0.0,0.0
358928.899,0.0016242320416495204,-0.0035501315724104643,-0.0016013511922210455,-0.011885952204465866,-0.02397485263645649,-0.014992661774158478,0.9552993178367615,0.11674445867538452,5.173539638519287,-0.02146848849952221,-0.16002371907234192,-0.07296808809041977,-0.003452249336987734,0.01488709170371294,1.000583529472351,105.440185546875,0.0,0.0,0.0
358932.871,0.0014710213290527463,-0.00382433645427227,-0.0017914763884618878,-0.012483324855566025,-0.02439160645008087,-0.015061977319419384,0.9539380073547363,0.11659732460975647,5.1670002937316895,0.21161587536334991,-0.03998761251568794,-0.14852620661258698,-0.003665280994027853,0.016727762296795845,1.0015530586242676,105.440185546875,0.0,0.0,0.0
358936.806,0.0014710213290527463,-0.00382433645427227,-0.0017914763884618878,-0.012483324855566025,-0.02439160645008087,-0.015061977319419384,0.9539380073547363,0.11659732460975647,5.1670002937316895,-0.03270905092358589,0.2372647225856781,0.24542982876300812,-0.003414788981899619,0.0169671643525362,1.0019510984420776,105.440185546875,0.0,0.0,0.0
358940.768,0.0014710213290527463,-0.00382433645427227,-0.0017914763884618878,-0.012483324855566025,-0.02439160645008087,-0.015061977319419384,0.9539380073547363,0.11659732460975647,5.1670002937316895,-0.1451762318611145,0.09598534554243088,0.12479197233915329,-0.0021083552855998278,0.015439006499946117,1.0019241571426392,105.440185546875,0.0,0.0,0.0
358944.763,0.0013435628497973084,-0.0040684849955141544,-0.001941139460541308,-0.013010591268539429,-0.024437187239527702,-0.01486979890614748,0.953378438949585,0.11509579420089722,5.162628650665283,0.04462122544646263,-0.48690277338027954,0.06898012012243271,-0.0016088334377855062,0.013215096667408943,1.0008795261383057,105.412841796875,0.0,0.0,0.0
358948.671,0.0013435628497973084,-0.0040684849955141544,-0.001941139460541308,-0.013010591268539429,-0.024437187239527702,-0.01486979890614748,0.953378438949585,0.11509579420089722,5.162628650665283,-0.05356445908546448,-0.20797769725322723,0.00863104872405529,-0.0019652724731713533,0.012525663711130619,1.0002974271774292,105.412841796875,0.0,0.0,0.0
358952.634,0.0012117262231186032,-0.004314583260565996,-0.002089352812618017,-0.013358986005187035,-0.024781540036201477,-0.014772079885005951,0.9520478248596191,0.11754481494426727,5.157963275909424,-0.04844972863793373,0.1466151624917984,0.2822386622428894,-0.0019774404354393482,0.013037439435720444,1.0008701086044312,105.412841796875,0.0,0.0,0.0
358956.579,0.0012117262231186032,-0.004314583260565996,-0.002089352812618017,-0.013358986005187035,-0.024781540036201477,-0.014772079885005951,0.9520478248596191,0.11754481494426727,5.157963275909424,-0.08796031028032303,0.21301984786987305,-0.007937606424093246,-0.0021690239664167166,0.013885700143873692,1.0023196935653687,105.412841796875,0.0,0.0,0.0
358960.54,0.0012117262231186032,-0.004314583260565996,-0.002089352812618017,-0.013358986005187035,-0.024781540036201477,-0.014772079885005951,0.9520478248596191,0.11754481494426727,5.157963275909424,-0.06614578515291214,-0.020644165575504303,0.160307377576828,-0.0024377205409109592,0.014363010413944721,1.0017118453979492,105.412841796875,0.0,0.0,0.0
358964.537,0.0010762275196611881,-0.004564098548144102,-0.0022362610325217247,-0.013743020594120026,-0.02512054145336151,-0.014608708210289478,0.9504274725914001,0.11590718477964401,5.15388298034668,0.021061275154352188,-0.36384114623069763,0.09946003556251526,-0.001983166439458728,0.015130092389881611,1.0014675855636597,105.42377471923828,0.0,0.0,0.0
358968.44,0.0010762275196611881,-0.004564098548144102,-0.0022362610325217247,-0.013743020594120026,-0.02512054145336151,-0.014608708210289478,0.9504274725914001,0.11590718477964401,5.15388298034668,0.05043768510222435,-0.14816367626190186,-0.0269307903945446,-0.0015794339124113321,0.015215826220810413,1.0021352767944336,105.42377471923828,0.0,0.0,0.0
358972.406,0.0009369206381961703,-0.00481627881526947,-0.0023814523592591286,-0.014120660722255707,-0.02531452290713787,-0.014428728260099888,0.949573278427124,0.11799763143062592,5.149575710296631,0.016963396221399307,0.2976909577846527,-0.13188615441322327,-0.0007559861405752599,0.014980517327785492,1.003090262413025,105.42377471923828,0.0,0.0,0.0
358976.35,0.0009369206381961703,-0.00481627881526947,-0.0023814523592591286,-0.014120660722255707,-0.02531452290713787,-0.014428728260099888,0.949573278427124,0.11799763143062592,5.149575710296631,0.1493336260318756,-0.29083433747291565,0.06680456548929214,-0.0015423302538692951,0.013967309147119522,1.0038095712661743,105.42377471923828,0.0,0.0,0.0
358980.306,0.0009369206381961703,-0.00481627881526947,-0.0023814523592591286,-0.014120660722255707,-0.02531452290713787,-0.014428728260099888,0.949573278427124,0.11799763143062592,5.149575710296631,-0.04315213859081268,0.0649690106511116,0.1784946471452713,-0.0017066292930394411,0.013640400022268295,1.0038036108016968,105.42377471923828,0.0,0.0,0.0
358984.307,0.0007941887597553432,-0.005070657469332218,-0.002523998497053981,-0.0144280306994915,-0.025560181587934494,-0.014079666696488857,0.9493389129638672,0.11786245554685593,5.144484519958496,-0.02354428544640541,-0.1666250079870224,0.13246677815914154,-0.0021678521297872066,0.013177837245166302,1.0032813549041748,105.412841796875,0.0,0.0,0.0
358988.212,0.0007941887597553432,-0.005070657469332218,-0.002523998497053981,-0.0144280306994915,-0.025560181587934494,-0.014079666696488857,0.9493389129638672,0.11786245554685593,5.144484519958496,-0.011933001689612865,-0.2156091183423996,-0.19127535820007324,-0.0015892100054770708,0.013749940320849419,1.0041455030441284,105.412841796875,0.0,0.0,0.0
358992.173,0.0006427099579013884,-0.005181303713470697,-0.002831058343872428,-0.014905646443367004,-0.025036688894033432,-0.014627547934651375,0.9413193464279175,0.12048406153917313,5.214966297149658,0.2053951919078827,-0.030116282403469086,-0.25035586953163147,-0.0011979114497080445,0.014122219756245613,1.003884196281433,105.412841796875,0.0,0.0,0.0
358996.116,0.0006427099579013884,-0.005181303713470697,-0.002831058343872428,-0.014905646443367004,-0.025036688894033432,-0.014627547934651375,0.9413193464279175,0.12048406153917313,5.214966297149658,0.07142197340726852,-0.16400586068630219,0.04924098029732704,-0.0015356007497757673,0.015415399335324764,1.0025311708450317,105.412841796875,0.0,0.0,0.0
359000.072,0.0006427099579013884,-0.005181303713470697,-0.002831058343872428,-0.014905646443367004,-0.025036688894033432,-0.014627547934651375,0.9413193464279175,0.12048406153917313,5.214966297149658,0.1758238673210144,0.005685139447450638,0.2595272362232208,-0.0016208511078730226,0.016451619565486908,1.0016263723373413,105.412841796875,0.0,0.0,0.0
359004.079,0.0004920032806694508,-0.00543256476521492,-0.002975792158395052,-0.01523800939321518,-0.025214411318302155,-0.014318371191620827,0.9414878487586975,0.12116479873657227,5.2090535163879395,0.2454216480255127,-0.3275102376937866,0.0234922394156456,-0.0014401838416233659,0.016009638085961342,1.0018649101257324,105.33082580566406,0.0,0.0,0.0
359007.986,0.0004920032806694508,-0.00543256476521492,-0.002975792158395052,-0.01523800939321518,-0.025214411318302155,-0.014318371191620827,0.9414878487586975,0.12116479873657227,5.2090535163879395,0.020487094298005104,-0.14786268770694733,0.11549390107393265,-0.0006790626212023199,0.015259313397109509,1.0009963512420654,105.33082580566406,0.0,0.0,0.0
359011.953,0.0006969536771066487,-0.005342766176909208,-0.0024519641883671284,-0.01338884886354208,-0.023240340873599052,-0.010369404219090939,0.9280147552490234,0.1053088828921318,5.2039103507995605,0.21539632976055145,-0.36961060762405396,0.10386543720960617,-0.0005145355244167149,0.014797563664615154,1.0001412630081177,105.33082580566406,0.0,0.0,0.0
359015.889,0.0006969536771066487,-0.005342766176909208,-0.0024519641883671284,-0.01338884886354208,-0.023240340873599052,-0.010369404219090939,0.9280147552490234,0.1053088828921318,5.2039103507995605,0.04906139895319939,-0.05556831136345863,0.16450457274913788,0.000221148002310656,0.01408537570387125,0.998832643032074,105.33082580566406,0.0,0.0,0.0
359019.839,0.0006969536771066487,-0.005342766176909208,-0.0024519641883671284,-0.01338884886354208,-0.023240340873599052,-0.010369404219090939,0.9280147552490234,0.1053088828921318,5.2039103507995605,0.06320921331644058,0.05829872563481331,-0.19848546385765076,-3.3599630114622414e-05,0.013083942234516144,0.9994477033615112,105.33082580566406,0.0,0.0,0.0
359023.845,0.0005622155731543899,-0.005576282273977995,-0.002555912360548973,-0.013560911640524864,-0.02346179075539112,-0.010419458150863647,0.9281339645385742,0.10639364272356033,5.199200630187988,0.048664502799510956,0.012573200277984142,0.27178025245666504,-5.7219891459681094e-05,0.012615887448191643,1.000885009765625,105.31441497802734,0.0,0.0,0.0
359027.756,0.0005622155731543899,-0.005576282273977995,-0.002555912360548973,-0.013560911640524864,-0.02346179075539112,-0.010419458150863647,0.9281339645385742,0.10639364272356033,5.199200630187988,0.22387084364891052,-0.17608414590358734,0.15482564270496368,-0.0006324060959741473,0.012601856142282486,1.001270055770874,105.31441497802734,0.0,0.0,0.0
359031.725,0.00042571360245347023,-0.005812694784253836,-0.0026596272364258766,-0.013741646893322468,-0.02381967194378376,-0.010322715155780315,0.9284873008728027,0.10713676363229752,5.1953582763671875,0.051023222506046295,-0.0530153252184391,-0.19815829396247864,7.307695341296494e-05,0.014004834927618504,1.001906156539917,105.31441497802734,0.0,0.0,0.0
359035.665,0.00042571360245347023,-0.005812694784253836,-0.0026596272364258766,-0.013741646893322468,-0.02381967194378376,-0.010322715155780315,0.9284873008728027,0.10713676363229752,5.1953582763671875,0.12625038623809814,-0.049537595361471176,0.013826551847159863,0.00026430562138557434,0.015503228642046452,1.0027035474777222,105.31441497802734,0.0,0.0,0.0
359039.611,0.00042571360245347023,-0.005812694784253836,-0.0026596272364258766,-0.013741646893322468,-0.02381967194378376,-0.010322715155780315,0.9284873008728027,0.10713676363229752,5.1953582763671875,0.044841330498456955,-0.08901964128017426,0.02291041426360607,0.00025109114358201623,0.015275119803845882,1.0021744966506958,105.31441497802734,0.0,0.0,0.0
359043.618,0.00028753606602549553,-0.006051594391465187,-0.0027616622392088175,-0.013896043412387371,-0.02395913004875183,-0.010083507746458054,0.9284378886222839,0.10758884996175766,5.189566135406494,-0.05101166293025017,-0.06425849348306656,-0.005292623303830624,-0.00037278240779414773,0.015126838348805904,1.0011752843856812,105.31441497802734,0.0,0.0,0.0
359047.523,0.00028753606602549553,-0.006051594391465187,-0.0027616622392088175,-0.013896043412387371,-0.02395913004875183,-0.010083507746458054,0.9284378886222839,0.10758884996175766,5.189566135406494,-0.06378351151943207,-0.19149233400821686,0.19553565979003906,-0.0009445360046811402,0.014771884307265282,1.0012120008468628,105.31441497802734,0.0,0.0,0.0
359051.49,0.00014744917280040681,-0.0062919240444898605,-0.0028617829084396362,-0.014123532921075821,-0.02410566434264183,-0.009939830750226974,0.9270132780075073,0.1086435616016388,5.185076713562012,-0.11659006774425507,-0.10504013299942017,-0.03959676995873451,-0.0008775514434091747,0.01432416494935751,1.0018622875213623,105.31441497802734,0.0,0.0,0.0
359055.431,0.00014744917280040681,-0.0062919240444898605,-0.0028617829084396362,-0.014123532921075821,-0.02410566434264183,-0.009939830750226974,0.9270132780075073,0.1086435616016388,5.185076713562012,-0.07234861701726913,0.21255606412887573,0.12894901633262634,-0.0010106725385412574,0.015072456561028957,1.0018681287765503,105.31441497802734,0.0,0.0,0.0
359059.381,0.008195597678422928,0.002009640447795391,-0.002889323513954878,0.03530975431203842,0.018628675490617752,-0.008447212167084217,0.645488440990448,-0.2920364737510681,5.226751327514648,0.2302229255437851,0.026650484651327133,-0.08227769285440445,-0.001570113468915224,0.015682971104979515,1.0007150173187256,105.31441497802734,0.0,0.0,0.0
359063.387,0.008550485596060753,0.0021979007869958878,-0.0029729551170021296,0.03566952794790268,0.019020073115825653,-0.008278711698949337,0.6445904970169067,-0.2925297021865845,5.2217631340026855,0.18008427321910858,-0.12460152059793472,-0.33680257201194763,-0.0014795262832194567,0.015592161566019058,0.9994977116584778,105.38550567626953,0.0,0.0,0.0
359067.299,0.008550485596060753,0.0021979007869958878,-0.0029729551170021296,0.03566952794790268,0.019020073115825653,-0.008278711698949337,0.6445904970169067,-0.2925297021865845,5.2217631340026855,-0.026840029284358025,-0.09427216649055481,-0.04060409963130951,-0.0014529172331094742,0.01582532934844494,0.9982535243034363,105.38550567626953,0.0,0.0,0.0
359071.262,0.008908741176128387,0.0023904487024992704,-0.0030561594758182764,0.03598351404070854,0.019486134871840477,-0.008361789397895336,0.6447072625160217,-0.2913854122161865,5.214923858642578,-0.40840330719947815,0.11273463815450668,0.12889070808887482,-0.001661008456721902,0.015577230602502823,0.9978574514389038,105.38550567626953,0.0,0.0,0.0
359075.204,0.008908741176128387,0.0023904487024992704,-0.0030561594758182764,0.03598351404070854,0.019486134871840477,-0.008361789397895336,0.6447072625160217,-0.2913854122161865,5.214923858642578,-0.10735182464122772,-0.030664078891277313,0.0010637331288307905,-0.0013973447494208813,0.014298815280199051,0.9983823299407959,105.38550567626953,0.0,0.0,0.0
359079.149,0.008908741176128387,0.0023904487024992704,-0.0030561594758182764,0.03598351404070854,0.019486134871840477,-0.008361789397895336,0.6447072625160217,-0.2913854122161865,5.214923858642578,0.20725588500499725,0.0770304948091507,0.04315991699695587,-0.0019500042544677854,0.01415784377604723,0.9985569715499878,105.38550567626953,0.0,0.0,0.0
359083.153,0.009270108304917812,0.0025871519464999437,-0.003140584798529744,0.03629174456000328,0.01985110715031624,-0.008522926829755306,0.6426827311515808,-0.2915557622909546,5.210258483886719,0.14280229806900024,-0.4304516315460205,-0.06916672736406326,-0.0011622050078585744,0.014365945011377335,0.999235987663269,105.31441497802734,0.0,0.0,0.0
359087.064,0.009270108304917812,0.0025871519464999437,-0.003140584798529744,0.03629174456000328,0.01985110715031624,-0.008522926829755306,0.6426827311515808,-0.2915557622909546,5.210258483886719,0.06586739420890808,-0.04606643319129944,-0.170950785279274,-0.0003286830324213952,0.013561634346842766,1.0006780624389648,105.31441497802734,0.0,0.0,0.0
359091.028,0.0077947708778083324,0.0031334494706243277,0.0002155831753043458,0.024713242426514626,0.022611523047089577,0.008330527693033218,0.6137606501579285,-0.19866852462291718,5.268850803375244,0.12616334855556488,-0.28471213579177856,0.23891882598400116,-0.0012357835657894611,0.01341493334621191,1.0021530389785767,105.31441497802734,0.0,0.0,0.0
359094.971,0.0077947708778083324,0.0031334494706243277,0.0002155831753043458,0.024713242426514626,0.022611523047089577,0.008330527693033218,0.6137606501579285,-0.19866852462291718,5.268850803375244,0.17864911258220673,0.2146540880203247,-0.036622680723667145,-0.0012383554130792618,0.014095058664679527,1.0022757053375244,105.31441497802734,0.0,0.0,0.0
359098.922,0.009951503947377205,0.005280583165585995,0.0017619257559999824,0.03816722333431244,0.03401823714375496,0.016181711107492447,0.5353565216064453,-0.310852974653244,5.29679012298584,-0.003702976740896702,0.1628425270318985,0.10282313078641891,-0.0005484657594934106,0.014558070339262486,1.0008056163787842,105.31441497802734,0.0,0.0,0.0
359102.93,0.010335092432796955,0.005623226519674063,0.0019247239688411355,0.03855353221297264,0.03450702503323555,0.016378233209252357,0.5361728072166443,-0.31083324551582336,5.29241943359375,-0.07996705919504166,-0.11217080801725388,0.07076175510883331,-0.000357596087269485,0.014275825582444668,0.999826967716217,105.33628845214844,0.0,0.0,0.0
359106.836,0.010335092432796955,0.005623226519674063,0.0019247239688411355,0.03855353221297264,0.03450702503323555,0.016378233209252357,0.5361728072166443,-0.31083324551582336,5.29241943359375,-0.21728843450546265,-0.2940971851348877,0.15174444019794464,-0.0006211207946762443,0.014488969929516315,1.0008176565170288,105.33628845214844,0.0,0.0,0.0
359110.797,0.010722794570028782,0.005971000529825687,0.0020887486170977354,0.03899003937840462,0.03504431992769241,0.01642703078687191,0.5341777205467224,-0.3089559078216553,5.288173198699951,-0.17168642580509186,-0.33031466603279114,0.06727772951126099,-0.0012772460468113422,0.015369190834462643,1.0016053915023804,105.33628845214844,0.0,0.0,0.0
359114.747,0.010722794570028782,0.005971000529825687,0.0020887486170977354,0.03899003937840462,0.03504431992769241,0.01642703078687191,0.5341777205467224,-0.3089559078216553,5.288173198699951,0.26965782046318054,-0.30944767594337463,0.16058413684368134,-0.0011721599148586392,0.016316918656229973,1.0006283521652222,105.33628845214844,0.0,0.0,0.0
359118.697,0.010722794570028782,0.005971000529825687,0.0020887486170977354,0.03899003937840462,0.03504431992769241,0.01642703078687191,0.5341777205467224,-0.3089559078216553,5.288173198699951,0.17838966846466064,0.06483123451471329,-0.04575275257229805,-0.0007890136330388486,0.017433499917387962,0.9998846650123596,105.33628845214844,0.0,0.0,0.0
359122.694,0.011114482767879963,0.006325012072920799,0.002253454178571701,0.039350755512714386,0.03575446456670761,0.01651439256966114,0.5346558690071106,-0.30616530776023865,5.283642292022705,0.11215875297784805,0.15306808054447174,-0.09931197762489319,-0.0010771483648568392,0.01744930073618889,0.9997609853744507,105.35816192626953,0.0,0.0,0.0
359126.604,0.011114482767879963,0.006325012072920799,0.002253454178571701,0.039350755512714386,0.03575446456670761,0.01651439256966114,0.5346558690071106,-0.30616530776023865,5.283642292022705,0.052372876554727554,-0.06766131520271301,0.008948640897870064,-0.0012683848617598414,0.016311874613165855,0.9997085332870483,105.35816192626953,0.0,0.0,0.0
359130.57,0.010208575055003166,0.007154583930969238,0.005119166802614927,0.03210514038801193,0.03869148716330528,0.029760587960481644,0.5142139196395874,-0.2473524808883667,5.3409199714660645,-0.10571257025003433,-0.14280788600444794,0.042022209614515305,-0.0011663575423881412,0.014800026081502438,1.0001752376556396,105.35816192626953,0.0,0.0,0.0
359134.518,0.010208575055003166,0.007154583930969238,0.005119166802614927,0.03210514038801193,0.03869148716330528,0.029760587960481644,0.5142139196395874,-0.2473524808883667,5.3409199714660645,0.053172919899225235,0.029953163117170334,0.23684991896152496,-0.0010175217175856233,0.014398295432329178,1.0005170106887817,105.35816192626953,0.0,0.0,0.0
359138.463,0.010872164741158485,0.007807261310517788,0.005632380489259958,0.035727985203266144,0.04233526811003685,0.03205627202987671,0.48765307664871216,-0.27933159470558167,5.351673126220703,0.30852794647216797,-0.1759786307811737,-0.02492668852210045,-0.0009058198775164783,0.014422460459172726,1.0019224882125854,105.35816192626953,0.0,0.0,0.0
359142.471,0.011231042444705963,0.008233730681240559,0.005953321233391762,0.036051444709300995,0.042955491691827774,0.03213214501738548,0.48781463503837585,-0.2783033549785614,5.347346305847168,-0.1657726764678955,0.08287603408098221,-0.0515342652797699,-0.0008093083743005991,0.01419481448829174,1.0032790899276733,105.33082580566406,0.0,0.0,0.0
359146.376,0.011231042444705963,0.008233730681240559,0.005953321233391762,0.036051444709300995,0.042955491691827774,0.03213214501738548,0.48781463503837585,-0.2783033549785614,5.347346305847168,0.12615860998630524,0.11417240649461746,0.13703210651874542,-0.0008934815414249897,0.013513770885765553,1.0035326480865479,105.33082580566406,0.0,0.0,0.0
359150.341,0.009591436944901943,0.007033606991171837,0.0013838877202942967,0.027658913284540176,0.03554019704461098,0.00844654906541109,0.5415961742401123,-0.20366919040679932,5.345897674560547,-0.11078638583421707,0.2417822629213333,0.1542220115661621,-0.001148476148955524,0.012500044889748096,1.0041159391403198,105.33082580566406,0.0,0.0,0.0
359154.285,0.009591436944901943,0.007033606991171837,0.0013838877202942967,0.027658913284540176,0.03554019704461098,0.00844654906541109,0.5415961742401123,-0.20366919040679932,5.345897674560547,-0.29802796244621277,0.2853233814239502,-0.04332638904452324,-0.0005254984134808183,0.013450846076011658,1.0040842294692993,105.33082580566406,0.0,0.0,0.0
359158.237,0.009591436944901943,0.007033606991171837,0.0013838877202942967,0.027658913284540176,0.03554019704461098,0.00844654906541109,0.5415961742401123,-0.20366919040679932,5.345897674560547,-0.21034185588359833,0.12933295965194702,0.002666342305019498,-0.0006235202308744192,0.014357526786625385,1.003710389137268,105.33082580566406,0.0,0.0,0.0
359162.235,0.009869236499071121,0.00739101180806756,0.001470361603423953,0.0279043298214674,0.03593822941184044,0.008848368190228939,0.5389038920402527,-0.20589055120944977,5.340878963470459,-0.14890623092651367,0.0026198988780379295,0.07018769532442093,-0.0014502040576189756,0.015207381919026375,1.0025967359542847,105.33628845214844,0.0,0.0,0.0
359166.148,0.009869236499071121,0.00739101180806756,0.001470361603423953,0.0279043298214674,0.03593822941184044,0.008848368190228939,0.5389038920402527,-0.20589055120944977,5.340878963470459,-0.3550408184528351,0.03752654418349266,-0.20183615386486053,-0.0021161003969609737,0.014592074789106846,1.000978708267212,105.33628845214844,0.0,0.0,0.0
359170.111,0.008626367896795273,0.006664879620075226,-0.001633975189179182,0.02162180282175541,0.03111657127737999,-0.007229434326291084,0.5724481344223022,-0.14972616732120514,5.318708896636963,-0.013579541817307472,0.04652845114469528,-0.05019126832485199,-0.0023577320389449596,0.013782313093543053,1.0006413459777832,105.33628845214844,0.0,0.0,0.0
359174.052,0.008626367896795273,0.006664879620075226,-0.001633975189179182,0.02162180282175541,0.03111657127737999,-0.007229434326291084,0.5724481344223022,-0.14972616732120514,5.318708896636963,0.07549010962247849,0.15964585542678833,0.07492567598819733,-0.0012591298436746001,0.013150452636182308,1.0013446807861328,105.33628845214844,0.0,0.0,0.0
359178.007,0.005551802925765514,0.0039451103657484055,-0.0011902402620762587,0.009772486984729767,0.014444500207901001,-0.002910730428993702,0.7049866914749146,-0.035534247756004333,5.242204189300537,0.18386241793632507,-0.05580636486411095,0.05098415166139603,-0.0008658426813781261,0.012502580881118774,1.0011229515075684,105.33628845214844,0.0,0.0,0.0
359182.005,0.005649043247103691,0.00408994872123003,-0.0012187762185931206,0.009676932357251644,0.014522296376526356,-0.002796206623315811,0.7050572037696838,-0.03618868067860603,5.237298488616943,-0.011612496338784695,0.019453056156635284,0.028453314676880836,-0.000797790999058634,0.01376063097268343,1.000867247581482,105.3909683227539,0.0,0.0,0.0
359185.912,0.005649043247103691,0.00408994872123003,-0.0012187762185931206,0.009676932357251644,0.014522296376526356,-0.002796206623315811,0.7050572037696838,-0.03618868067860603,5.237298488616943,0.14358416199684143,-0.2746313214302063,-0.13743236660957336,-0.0007848876412026584,0.015507306903600693,1.0014333724975586,105.3909683227539,0.0,0.0,0.0
359189.885,0.00566986296325922,0.0035444984678179026,6.852427759440616e-05,0.009272102266550064,0.010305165313184261,0.005033762659877539,0.7427713871002197,-0.027790261432528496,5.293560981750488,-0.04325784742832184,-0.02602389082312584,0.006250177510082722,-0.000755627581384033,0.017130456864833832,1.0016822814941406,105.3909683227539,0.0,0.0,0.0
359193.823,0.00566986296325922,0.0035444984678179026,6.852427759440616e-05,0.009272102266550064,0.010305165313184261,0.005033762659877539,0.7427713871002197,-0.027790261432528496,5.293560981750488,-0.15370236337184906,0.4154045581817627,-0.14230747520923615,-0.0013144046533852816,0.017324931919574738,1.0011894702911377,105.3909683227539,0.0,0.0,0.0
359197.778,0.0084786806255579,0.0051489234901964664,0.001016706693917513,0.018456440418958664,0.019637351855635643,0.009971112944185734,0.6709339022636414,-0.11342868953943253,5.316468238830566,-0.0377146415412426,0.032332561910152435,-0.02919713780283928,-0.0011310972040519118,0.016208481043577194,1.0007390975952148,105.3909683227539,0.0,0.0,0.0
359201.777,0.008663428016006947,0.005347922444343567,0.0011170946527272463,0.018494926393032074,0.020160866901278496,0.010106679052114487,0.6694228649139404,-0.11506181210279465,5.310699939727783,-0.018178226426243782,0.0627376139163971,-0.09806665033102036,-5.303544821799733e-05,0.014421678148210049,1.0003244876861572,105.32534790039062,0.0,0.0,0.0
359205.691,0.008663428016006947,0.005347922444343567,0.0011170946527272463,0.018494926393032074,0.020160866901278496,0.010106679052114487,0.6694228649139404,-0.11506181210279465,5.310699939727783,-0.09106223285198212,-0.2864854633808136,0.08280069380998611,-5.325912934495136e-05,0.012814524583518505,0.9993558526039124,105.32534790039062,0.0,0.0,0.0
359209.656,0.008849170058965683,0.005550699308514595,0.001218167133629322,0.01865537278354168,0.020392851904034615,0.01010800525546074,0.6682155132293701,-0.11392603069543839,5.305096626281738,-0.04129330441355705,-0.28140726685523987,-0.12979069352149963,3.439781357883476e-05,0.01219811849296093,0.9988641738891602,105.32534790039062,0.0,0.0,0.0
359213.598,0.008849170058965683,0.005550699308514595,0.001218167133629322,0.01865537278354168,0.020392851904034615,0.01010800525546074,0.6682155132293701,-0.11392603069543839,5.305096626281738,0.0416291169822216,-0.10521695762872696,-0.054258622229099274,7.328311767196283e-05,0.011418834328651428,0.9993101954460144,105.32534790039062,0.0,0.0,0.0
359217.545,0.010270971804857254,0.006159486249089241,0.0018393530044704676,0.024261878803372383,0.023965520784258842,0.013768082484602928,0.6421934962272644,-0.1645779013633728,5.324365615844727,0.014992337673902512,-0.3333754241466522,0.19966620206832886,-0.0007680597482249141,0.01165198627859354,1.0005271434783936,105.32534790039062,0.0,0.0,0.0
359221.553,0.010514914058148861,0.0063995192758738995,0.001976780127733946,0.02452869340777397,0.02403891645371914,0.013717582449316978,0.6415746808052063,-0.16219601035118103,5.318848133087158,0.22696490585803986,-0.08251317590475082,0.14654409885406494,-0.0016561663942411542,0.013026629574596882,1.0012134313583374,105.28707122802734,0.0,0.0,0.0
359225.459,0.00957823358476162,0.006531032267957926,0.003562824334949255,0.020968977361917496,0.024289177730679512,0.023802312090992928,0.6378276944160461,-0.13144679367542267,5.379939079284668,0.06312023103237152,-0.012657477520406246,-0.1686255782842636,-0.0021765714045614004,0.014082065783441067,1.0021686553955078,105.28707122802734,0.0,0.0,0.0
359229.421,0.00978809129446745,0.006774991750717163,0.003801665734499693,0.021004874259233475,0.02450098656117916,0.02396613173186779,0.6382569074630737,-0.13067157566547394,5.374568939208984,-0.1097058430314064,0.1611056923866272,-0.04671613872051239,-0.0013161053648218513,0.013431301340460777,1.0023231506347656,105.28707122802734,0.0,0.0,0.0
359233.367,0.00978809129446745,0.006774991750717163,0.003801665734499693,0.021004874259233475,0.02450098656117916,0.02396613173186779,0.6382569074630737,-0.13067157566547394,5.374568939208984,0.3020227253437042,-0.1793362945318222,0.31781160831451416,-0.0004989334265701473,0.013265932910144329,1.0022443532943726,105.28707122802734,0.0,0.0,0.0
359237.317,0.010659719817340374,0.007246913388371468,0.004196116700768471,0.0240340419113636,0.02732180804014206,0.026267554610967636,0.6165798306465149,-0.1587107926607132,5.386214256286621,0.13656821846961975,-0.07487975805997849,0.03176315128803253,-0.0009477304411120713,0.013542387634515762,1.002185583114624,105.28707122802734,0.0,0.0,0.0
359241.32,0.010900872759521008,0.007521483115851879,0.0044599478133022785,0.02419906295835972,0.027590138837695122,0.02649882063269615,0.6173108816146851,-0.15808293223381042,5.3823089599609375,-0.08241681009531021,-0.10773637890815735,-0.2762344479560852,-0.001753703923895955,0.014198976568877697,1.0013179779052734,105.34175109863281,0.0,0.0,0.0
359245.225,0.010900872759521008,0.007521483115851879,0.0044599478133022785,0.02419906295835972,0.027590138837695122,0.02649882063269615,0.6173108816146851,-0.15808293223381042,5.3823089599609375,0.11178838461637497,0.2605280876159668,-0.29746904969215393,-0.0017529636388644576,0.014762841165065765,1.0006614923477173,105.34175109863281,0.0,0.0,0.0
359249.191,0.011143251322209835,0.007799176964908838,0.004725554957985878,0.024279125034809113,0.02794662117958069,0.026622794568538666,0.6169849038124084,-0.1586357057094574,5.374411106109619,0.1945660561323166,0.057482268661260605,-0.09778568148612976,-0.0011397700291126966,0.014101359993219376,1.0011143684387207,105.34175109863281,0.0,0.0,0.0
359253.133,0.011143251322209835,0.007799176964908838,0.004725554957985878,0.024279125034809113,0.02794662117958069,0.026622794568538666,0.6169849038124084,-0.1586357057094574,5.374411106109619,0.022721286863088608,-0.05832324177026749,0.3561515212059021,-0.001158564817160368,0.01362516451627016,1.0014234781265259,105.34175109863281,0.0,0.0,0.0
359257.087,0.011143251322209835,0.007799176964908838,0.004725554957985878,0.024279125034809113,0.02794662117958069,0.026622794568538666,0.6169849038124084,-0.1586357057094574,5.374411106109619,-0.012154195457696915,-0.15017198026180267,0.19716638326644897,-0.0017530820332467556,0.013616596348583698,1.001879096031189,105.34175109863281,0.0,0.0,0.0
359261.089,0.01138664036989212,0.00808018073439598,0.004992518573999405,0.024401286616921425,0.02825215645134449,0.026770122349262238,0.6169235110282898,-0.1580895483493805,5.370640754699707,0.16491998732089996,0.0007192628690972924,0.06080766022205353,-0.0017922287806868553,0.01374454703181982,1.0015441179275513,105.29801177978516,0.0,0.0,0.0
359265.0,0.010506155900657177,0.008186833932995796,0.006670541595667601,0.02008066326379776,0.02815898135304451,0.037729568779468536,0.6156805157661438,-0.12104450911283493,5.42818546295166,0.14688804745674133,0.04912830516695976,-0.17093198001384735,-0.0014123001601547003,0.013969851657748222,1.0003108978271484,105.29801177978516,0.0,0.0,0.0
359268.962,0.010707075707614422,0.008469951339066029,0.00704836705699563,0.020105937495827675,0.028463000431656837,0.037835657596588135,0.6163901090621948,-0.12092691659927368,5.422571659088135,-0.16977345943450928,0.01524265855550766,-0.003993415739387274,-0.0005325332749634981,0.014230619184672832,0.9995244145393372,105.29801177978516,0.0,0.0,0.0
359272.905,0.010707075707614422,0.008469951339066029,0.00704836705699563,0.020105937495827675,0.028463000431656837,0.037835657596588135,0.6163901090621948,-0.12092691659927368,5.422571659088135,-0.1135093942284584,0.3330211937427521,-0.01213839277625084,0.0006287220166996121,0.013867978006601334,1.000389814376831,105.29801177978516,0.0,0.0,0.0
359276.863,0.0071721975691616535,0.0047900015488266945,0.004241556860506535,0.0022760473657399416,0.0053919521160423756,0.022322192788124084,0.7988499402999878,0.047215785831213,5.340096473693848,-0.05643562227487564,0.13013076782226562,0.19649344682693481,0.0024135818239301443,0.013477176427841187,1.000915765762329,105.29801177978516,0.0,0.0,0.0
359280.856,0.007194858975708485,0.004843898583203554,0.004464930854737759,0.002256766427308321,0.005387580953538418,0.022352898493409157,0.7968859672546387,0.045378416776657104,5.335244178771973,-0.2400546669960022,0.11984019726514816,-0.04279802367091179,0.0027947821654379368,0.013501675799489021,1.000624656677246,105.29801177978516,0.0,0.0,0.0
359284.775,0.007194858975708485,0.004843898583203554,0.004464930854737759,0.002256766427308321,0.005387580953538418,0.022352898493409157,0.7968859672546387,0.045378416776657104,5.335244178771973,0.061704766005277634,-0.006248515099287033,0.016809387132525444,0.001194950076751411,0.01514340378344059,0.9992619752883911,105.29801177978516,0.0,0.0,0.0
359288.742,0.007217991165816784,0.004898000508546829,0.0046885255724191666,0.0023701549507677555,0.005432870239019394,0.022366292774677277,0.7951512336730957,0.04473741725087166,5.330178737640381,-0.1851280927658081,-0.17691053450107574,0.10089936852455139,-0.00043930867104791105,0.01570563018321991,0.9986621737480164,105.29801177978516,0.0,0.0,0.0
359292.679,0.007217991165816784,0.004898000508546829,0.0046885255724191666,0.0023701549507677555,0.005432870239019394,0.022366292774677277,0.7951512336730957,0.04473741725087166,5.330178737640381,-0.2116946130990982,-0.061540815979242325,0.06791815906763077,-0.0007759237778373063,0.014696821570396423,0.9997146129608154,105.29801177978516,0.0,0.0,0.0
359296.634,0.007217991165816784,0.004898000508546829,0.0046885255724191666,0.0023701549507677555,0.005432870239019394,0.022366292774677277,0.7951512336730957,0.04473741725087166,5.330178737640381,0.1656811684370041,-0.04995911195874214,0.060992393642663956,-3.689393633976579e-05,0.013293620198965073,1.001476764678955,105.29801177978516,0.0,0.0,0.0
359300.629,0.0072410209104418755,0.004952688701450825,0.004912110511213541,0.0022362819872796535,0.00550490478053689,0.022350963205099106,0.7932612299919128,0.04561743140220642,5.3256516456604,0.13510271906852722,-0.10743909329175949,-0.4862103760242462,0.001124684582464397,0.012879032641649246,1.0032578706741333,105.34175109863281,0.0,0.0,0.0
359304.535,0.0072410209104418755,0.004952688701450825,0.004912110511213541,0.0022362819872796535,0.00550490478053689,0.022350963205099106,0.7932612299919128,0.04561743140220642,5.3256516456604,0.12724047899246216,0.03036648966372013,-0.019337158650159836,0.0008064528228715062,0.01262141577899456,1.0037856101989746,105.34175109863281,0.0,0.0,0.0
359308.509,0.005965230520814657,0.003942976240068674,0.0015570907853543758,-0.005101590882986784,-0.00035166938323527575,0.0016561353113502264,0.8368362188339233,0.11043746769428253,5.293025970458984,0.26902875304222107,-0.12355150282382965,0.03499041870236397,-3.1316270906245336e-05,0.012086555361747742,1.002372145652771,105.34175109863281,0.0,0.0,0.0
359312.443,0.005965230520814657,0.003942976240068674,0.0015570907853543758,-0.005101590882986784,-0.00035166938323527575,0.0016561353113502264,0.8368362188339233,0.11043746769428253,5.293025970458984,0.07925977557897568,-0.020027250051498413,0.10576488822698593,-0.0016418597660958767,0.011878455057740211,1.0014715194702148,105.34175109863281,0.0,0.0,0.0
359316.399,0.005965230520814657,0.003942976240068674,0.0015570907853543758,-0.005101590882986784,-0.00035166938323527575,0.0016561353113502264,0.8368362188339233,0.11043746769428253,5.293025970458984,-0.012562277726829052,-0.10990388691425323,0.08774475753307343,-0.002775117987766862,0.012456790544092655,1.0013227462768555,105.34175109863281,0.0,0.0,0.0
359320.4,0.005912718363106251,0.003938067704439163,0.0015745346900075674,-0.005400868132710457,-0.0006295204511843622,0.0018330441089347005,0.8372113108634949,0.11099184304475784,5.288412094116211,-0.34561797976493835,0.12597571313381195,0.27155792713165283,-0.002381310099735856,0.012869707308709621,1.0014907121658325,105.3636245727539,0.0,0.0,0.0
359324.307,0.005912718363106251,0.003938067704439163,0.0015745346900075674,-0.005400868132710457,-0.0006295204511843622,0.0018330441089347005,0.8372113108634949,0.11099184304475784,5.288412094116211,-0.04463919624686241,0.0875878781080246,-0.16381970047950745,-0.002270486205816269,0.01388815138489008,1.0011851787567139,105.3636245727539,0.0,0.0,0.0
359328.279,0.005856659729033709,0.003930922131985426,0.0015935645205900073,-0.00581095926463604,-0.000799047586042434,0.0019733640365302563,0.8347423672676086,0.10993128269910812,5.283782958984375,-0.010746975429356098,0.21973837912082672,0.001504185376688838,-0.0016022379277274013,0.014470665715634823,1.0015597343444824,105.3636245727539,0.0,0.0,0.0
359332.218,0.005856659729033709,0.003930922131985426,0.0015935645205900073,-0.00581095926463604,-0.000799047586042434,0.0019733640365302563,0.8347423672676086,0.10993128269910812,5.283782958984375,0.013898337259888649,-0.24715203046798706,-0.16382381319999695,-0.0007627526065334678,0.015335574746131897,1.001876950263977,105.3636245727539,0.0,0.0,0.0
359336.172,0.005856659729033709,0.003930922131985426,0.0015935645205900073,-0.00581095926463604,-0.000799047586042434,0.0019733640365302563,0.8347423672676086,0.10993128269910812,5.283782958984375,-0.08100506663322449,-0.268499493598938,0.05890097841620445,-0.0010499805212020874,0.015387016348540783,1.0016298294067383,105.3636245727539,0.0,0.0,0.0
359340.168,0.005797055549919605,0.0039230105467140675,0.0016141864471137524,-0.006109920796006918,-0.0007826918154023588,0.0021514480467885733,0.8338200449943542,0.11082664132118225,5.277927398681641,-0.028121428564190865,-0.1395704746246338,-0.0836603045463562,-0.001940830610692501,0.016560249030590057,1.0015828609466553,105.3800277709961,0.0,0.0,0.0
359344.078,0.005797055549919605,0.0039230105467140675,0.0016141864471137524,-0.006109920796006918,-0.0007826918154023588,0.0021514480467885733,0.8338200449943542,0.11082664132118225,5.277927398681641,0.1527625322341919,-0.2413068562746048,0.029683098196983337,-0.0029059993103146553,0.016997545957565308,1.0020811557769775,105.3800277709961,0.0,0.0,0.0
359348.056,0.0057338145561516285,0.003915946464985609,0.0016366648487746716,-0.0065383282490074635,-0.0006294870399869978,0.0023446111008524895,0.8332422375679016,0.1124572828412056,5.272435188293457,-0.0815592035651207,-0.006725329905748367,-0.07621707022190094,-0.0031232701148837805,0.015248010866343975,1.0025750398635864,105.3800277709961,0.0,0.0,0.0
359351.987,0.0035219716373831034,0.0015175702283158898,0.001275285379961133,-0.02126704342663288,-0.015383642166852951,0.0007293804665096104,0.9457740783691406,0.24156886339187622,5.186330318450928,0.018256165087223053,-0.0279304888099432,-0.36136317253112793,-0.0033703690860420465,0.012841708026826382,1.0023406744003296,105.3800277709961,0.0,0.0,0.0
359355.94,0.0035219716373831034,0.0015175702283158898,0.001275285379961133,-0.02126704342663288,-0.015383642166852951,0.0007293804665096104,0.9457740783691406,0.24156886339187622,5.186330318450928,0.3009403645992279,-0.04906325042247772,-0.08588816225528717,-0.0019479745533317327,0.012053613550961018,1.0017503499984741,105.3800277709961,0.0,0.0,0.0
359359.94,0.0033059129491448402,0.001361914910376072,0.0012837424874305725,-0.021946121007204056,-0.015745384618639946,0.0009627689141780138,0.945370614528656,0.2415139228105545,5.17918586730957,0.11466138064861298,-0.1282523274421692,-0.028539882972836494,-0.0016776199918240309,0.01224456261843443,1.000907063484192,105.35816192626953,0.0,0.0,0.0
359363.851,0.0033059129491448402,0.001361914910376072,0.0012837424874305725,-0.021946121007204056,-0.015745384618639946,0.0009627689141780138,0.945370614528656,0.2415139228105545,5.17918586730957,-0.03735607489943504,0.21223175525665283,-0.04160427302122116,-0.0022420771420001984,0.013745823875069618,1.0005518198013306,105.35816192626953,0.0,0.0,0.0
359367.826,0.0030676177702844143,0.0005320094642229378,-0.0003264311817474663,-0.022653713822364807,-0.01997189037501812,-0.007831104099750519,0.9774987101554871,0.24489319324493408,5.163610458374023,-0.005435041151940823,0.2726045250892639,-0.1473427563905716,-0.0023161161225289106,0.01492629386484623,1.0000683069229126,105.35816192626953,0.0,0.0,0.0
359371.754,0.0030676177702844143,0.0005320094642229378,-0.0003264311817474663,-0.022653713822364807,-0.01997189037501812,-0.007831104099750519,0.9774987101554871,0.24489319324493408,5.163610458374023,0.12300463020801544,0.03925691917538643,-0.008306794799864292,-0.0017167311161756516,0.014790212735533714,1.0013803243637085,105.35816192626953,0.0,0.0,0.0
359375.714,0.0030676177702844143,0.0005320094642229378,-0.0003264311817474663,-0.022653713822364807,-0.01997189037501812,-0.007831104099750519,0.9774987101554871,0.24489319324493408,5.163610458374023,-0.020127305760979652,-0.1829443722963333,0.21517013013362885,-0.0009413964580744505,0.013157409615814686,1.0022609233856201,105.35816192626953,0.0,0.0,0.0
359379.719,0.003033137647435069,-0.00027637757011689246,0.0002882606058847159,-0.0220224317163229,-0.024010932072997093,-0.003802483668550849,1.0074212551116943,0.2380533665418625,5.240862846374512,0.0651792660355568,0.06387396156787872,0.2055613398551941,-0.0012733745388686657,0.012527275830507278,1.003388524055481,105.38550567626953,0.0,0.0,0.0
