timestamp,stateEstimate.x,stateEstimate.y,stateEstimate.z,stateEstimate.vx,stateEstimate.vy,stateEstimate.vz,stateEstimate.roll,stateEstimate.pitch,stateEstimate.yaw,gyro.x,gyro.y,gyro.z,acc.x,acc.y,acc.z,baro.asl,lighthouse.x,lighthouse.y,lighthouse.z
162439.417,-0.007810049224644899,-0.015912316739559174,0.003332744352519512,-0.013573143631219864,-0.003363219788298011,0.0007053409935906529,0.9622281193733215,-0.08717553317546844,1.9061379432678223,0.18419314920902252,-0.06024276837706566,-0.13673889636993408,-0.004995761439204216,0.01780863106250763,1.0012714862823486,104.98633575439453,0.0,0.0,0.0
162443.363,-0.008135049603879452,-0.015838872641324997,0.00377741944976151,-0.015267315320670605,-0.003113260492682457,0.003966924734413624,0.9596656560897827,-0.07373247295618057,1.951517105102539,-0.0741722509264946,0.10257111489772797,0.0410931259393692,-0.00447853934019804,0.018253399059176445,1.0007063150405884,104.98633575439453,0.0,0.0,0.0
162447.31,-0.008289335295557976,-0.015869460999965668,0.0038175631780177355,-0.015590026043355465,-0.0030039444100111723,0.0040622311644256115,0.9598183631896973,-0.07355079799890518,1.9490370750427246,-0.281279593706131,0.4221804440021515,0.1661628782749176,-0.004235617816448212,0.018505075946450233,1.001263976097107,104.98633575439453,0.0,0.0,0.0
162451.315,-0.008289335295557976,-0.015869460999965668,0.0038175631780177355,-0.015590026043355465,-0.0030039444100111723,0.0040622311644256115,0.9598183631896973,-0.07355079799890518,1.9490370750427246,0.0800725594162941,-0.1054266020655632,-0.04557710886001587,-0.003954029642045498,0.017861517146229744,1.0002031326293945,104.89337921142578,0.0,0.0,0.0
162455.223,-0.008446636609733105,-0.015898864716291428,0.0038585930597037077,-0.01587039604783058,-0.0028763001319020987,0.004144156817346811,0.9577637314796448,-0.0749705359339714,1.9476605653762817,-0.02985575422644615,-0.14659421145915985,-0.04752050340175629,-0.0032810489647090435,0.01706978864967823,0.9994540810585022,104.89337921142578,0.0,0.0,0.0
162459.199,-0.008446636609733105,-0.015898864716291428,0.0038585930597037077,-0.01587039604783058,-0.0028763001319020987,0.004144156817346811,0.9577637314796448,-0.0749705359339714,1.9476605653762817,-0.05536402761936188,0.1968834549188614,0.2336360365152359,-0.0025190606247633696,0.016676241531968117,1.0006322860717773,104.89337921142578,0.0,0.0,0.0
162463.131,-0.008446636609733105,-0.015898864716291428,0.0038585930597037077,-0.01587039604783058,-0.0028763001319020987,0.004144156817346811,0.9577637314796448,-0.0749705359339714,1.9476605653762817,0.10699152201414108,0.12643440067768097,-0.0429980605840683,-0.0031337556429207325,0.017108865082263947,1.0007518529891968,104.89337921142578,0.0,0.0,0.0
162467.079,-0.008446636609733105,-0.015898864716291428,0.0038585930597037077,-0.01587039604783058,-0.0028763001319020987,0.004144156817346811,0.9577637314796448,-0.0749705359339714,1.9476605653762817,-0.01188401784747839,-0.10307486355304718,0.05950691178441048,-0.0038884002715349197,0.01701226271688938,1.0009827613830566,104.89337921142578,0.0,0.0,0.0
162471.087,-0.010133977979421616,-0.01739972084760666,0.002966478932648897,-0.026012159883975983,-0.012412264943122864,-0.001508264453150332,1.0299583673477173,0.002111711772158742,1.9090576171875,0.035623546689748764,0.09499377757310867,-0.0638442188501358,-0.004312687553465366,0.018018413335084915,1.000657081604004,104.8496322631836,0.0,0.0,0.0
162474.991,-0.010396074503660202,-0.01752413436770439,0.002951869275420904,-0.02640753798186779,-0.012469508685171604,-0.001413060468621552,1.029091715812683,0.001890478772111237,1.9069364070892334,0.004965873435139656,0.1366509348154068,-0.10695581883192062,-0.004402573220431805,0.01857794262468815,1.0011881589889526,104.8496322631836,0.0,0.0,0.0
162478.958,-0.010396074503660202,-0.01752413436770439,0.002951869275420904,-0.02640753798186779,-0.012469508685171604,-0.001413060468621552,1.029091715812683,0.001890478772111237,1.9069364070892334,0.010036456398665905,0.1305827796459198,0.04442635178565979,-0.004194258246570826,0.017705688253045082,1.0014809370040894,104.8496322631836,0.0,0.0,0.0
162482.897,-0.010396074503660202,-0.01752413436770439,0.002951869275420904,-0.02640753798186779,-0.012469508685171604,-0.001413060468621552,1.029091715812683,0.001890478772111237,1.9069364070892334,0.02135556936264038,0.14664088189601898,-0.10960118472576141,-0.0031562303192913532,0.016525622457265854,1.0011749267578125,104.8496322631836,0.0,0.0,0.0
162486.852,-0.010662143118679523,-0.01764901727437973,0.002938463818281889,-0.026806557551026344,-0.012506035156548023,-0.00126739707775414,1.0281871557235718,0.0005229669041000307,1.904624342918396,-0.06287549436092377,-0.1955292522907257,0.04564787447452545,-0.002807464450597763,0.016444651409983635,1.000691294670105,104.8496322631836,0.0,0.0,0.0
162490.86,-0.010662143118679523,-0.01764901727437973,0.002938463818281889,-0.026806557551026344,-0.012506035156548023,-0.00126739707775414,1.0281871557235718,0.0005229669041000307,1.904624342918396,-0.05166347324848175,-0.22074195742607117,0.16633488237857819,-0.0036008008755743504,0.01753968931734562,1.0003862380981445,104.90431213378906,0.0,0.0,0.0
162494.759,-0.0109317721799016,-0.01777462661266327,0.002926137764006853,-0.027119657024741173,-0.012615012936294079,-0.0011972282081842422,1.0266642570495605,0.0020656262058764696,1.9034737348556519,-0.13163882493972778,0.0104022566229105,0.09067987650632858,-0.003777176607400179,0.018289970234036446,0.9999279975891113,104.90431213378906,0.0,0.0,0.0
162498.725,-0.0109317721799016,-0.01777462661266327,0.002926137764006853,-0.027119657024741173,-0.012615012936294079,-0.0011972282081842422,1.0266642570495605,0.0020656262058764696,1.9034737348556519,-0.06072737276554108,0.10042539238929749,-0.1334158182144165,-0.0030311092268675566,0.018857762217521667,0.998732328414917,104.90431213378906,0.0,0.0,0.0
162502.666,-0.010658582672476768,-0.01798093318939209,0.0029328439850360155,-0.025194261223077774,-0.013907657004892826,-0.0012042198795825243,1.0368366241455078,-0.011167370714247227,1.9586962461471558,-0.05476853623986244,0.059989769011735916,0.19332516193389893,-0.0020460966043174267,0.01900622807443142,0.997954249382019,104.90431213378906,0.0,0.0,0.0
162506.617,-0.010911935940384865,-0.01811974309384823,0.0029203754384070635,-0.025476958602666855,-0.013853427022695541,-0.001288840314373374,1.034923791885376,-0.011806326918303967,1.956977367401123,0.22920255362987518,-0.08526770025491714,-0.061397433280944824,-0.0018902630545198917,0.0181051604449749,0.9984248280525208,104.90431213378906,0.0,0.0,0.0
162510.623,-0.010911935940384865,-0.01811974309384823,0.0029203754384070635,-0.025476958602666855,-0.013853427022695541,-0.001288840314373374,1.034923791885376,-0.011806326918303967,1.956977367401123,0.1513090282678604,-0.06906794756650925,-0.06186796352267265,-0.002027174225077033,0.017610276117920876,0.9988954663276672,104.90978240966797,0.0,0.0,0.0
162514.525,-0.011167580261826515,-0.018258308991789818,0.00290686939842999,-0.025652360171079636,-0.013858751393854618,-0.0014117466052994132,1.0352550745010376,-0.011422471143305302,1.954923152923584,-0.09712948650121689,0.2693600356578827,0.1487901210784912,-0.0029048204887658358,0.0185569915920496,0.9997426271438599,104.90978240966797,0.0,0.0,0.0
162518.493,-0.011167580261826515,-0.018258308991789818,0.00290686939842999,-0.025652360171079636,-0.013858751393854618,-0.0014117466052994132,1.0352550745010376,-0.011422471143305302,1.954923152923584,-0.06453489512205124,0.12468910962343216,0.04361087828874588,-0.004026232752948999,0.017981017008423805,1.0009512901306152,104.90978240966797,0.0,0.0,0.0
162522.432,-0.010941676795482635,-0.018391301855444908,0.0028473897837102413,-0.02392067387700081,-0.014709582552313805,-0.001870680251158774,1.042204737663269,-0.023672491312026978,1.9880750179290771,-0.17304131388664246,-0.18501529097557068,-0.023727191612124443,-0.004774026107043028,0.016704224050045013,1.0008784532546997,104.90978240966797,0.0,0.0,0.0
162526.388,-0.010941676795482635,-0.018391301855444908,0.0028473897837102413,-0.02392067387700081,-0.014709582552313805,-0.001870680251158774,1.042204737663269,-0.023672491312026978,1.9880750179290771,-0.18404130637645721,0.2652139663696289,0.029964491724967957,-0.004316011909395456,0.015539846383035183,1.0017131567001343,104.90978240966797,0.0,0.0,0.0
162530.387,-0.011761506088078022,-0.019244549795985222,0.0021396325901150703,-0.028600003570318222,-0.01944081485271454,-0.005818693432956934,1.0762066841125488,0.008659168146550655,1.9446324110031128,0.11106116324663162,-0.012516941875219345,-0.3984764814376831,-0.003750790376216173,0.016049053519964218,1.0018129348754883,104.88790893554688,0.0,0.0,0.0
162534.296,-0.012049545533955097,-0.019440464675426483,0.002082312013953924,-0.02900855615735054,-0.01974114216864109,-0.005644659046083689,1.0745811462402344,0.0077704451978206635,1.940930724143982,-0.06194748729467392,-0.009181877598166466,-0.2471875250339508,-0.002734023379161954,0.01591361127793789,1.0019181966781616,104.88790893554688,0.0,0.0,0.0
162538.267,-0.012049545533955097,-0.019440464675426483,0.002082312013953924,-0.02900855615735054,-0.01974114216864109,-0.005644659046083689,1.0745811462402344,0.0077704451978206635,1.940930724143982,-0.1580062359571457,0.2724613845348358,0.0414583794772625,-0.0018548357766121626,0.015682892873883247,1.0028538703918457,104.88790893554688,0.0,0.0,0.0
162542.205,-0.012049545533955097,-0.019440464675426483,0.002082312013953924,-0.02900855615735054,-0.01974114216864109,-0.005644659046083689,1.0745811462402344,0.0077704451978206635,1.940930724143982,0.10790461301803589,0.060415346175432205,-0.059487484395504,-0.0017239998560398817,0.016748420894145966,1.0035380125045776,104.88790893554688,0.0,0.0,0.0
162546.16,-0.012340687215328217,-0.01963929831981659,0.0020272517576813698,-0.02922055497765541,-0.020024560391902924,-0.005366625264286995,1.072829008102417,0.006421348545700312,1.9383456707000732,0.14471739530563354,-0.0793103575706482,-0.2556382715702057,-0.002052533207461238,0.017283685505390167,1.002669334411621,104.88790893554688,0.0,0.0,0.0
162550.16,-0.012340687215328217,-0.01963929831981659,0.0020272517576813698,-0.02922055497765541,-0.020024560391902924,-0.005366625264286995,1.072829008102417,0.006421348545700312,1.9383456707000732,0.0319586805999279,0.07802928984165192,0.04284750670194626,-0.0028962381184101105,0.01738116703927517,1.001913070678711,104.8496322631836,0.0,0.0,0.0
162554.066,-0.012634101323783398,-0.01984032802283764,0.001974850194528699,-0.029462944716215134,-0.02018055133521557,-0.005112917628139257,1.0725826025009155,0.006327094044536352,1.9355485439300537,-0.24385109543800354,8.195918780984357e-05,0.17636673152446747,-0.003434664336964488,0.016302727162837982,1.0015311241149902,104.8496322631836,0.0,0.0,0.0
162558.035,-0.012634101323783398,-0.01984032802283764,0.001974850194528699,-0.029462944716215134,-0.02018055133521557,-0.005112917628139257,1.0725826025009155,0.006327094044536352,1.9355485439300537,-0.02437840960919857,0.24797958135604858,-0.1190061867237091,-0.003569819498807192,0.015808220952749252,1.0011942386627197,104.8496322631836,0.0,0.0,0.0
162561.978,-0.012228760868310928,-0.01997426152229309,0.0016922818031162024,-0.026514656841754913,-0.02108946070075035,-0.00708362041041255,1.080564022064209,-0.015114891342818737,1.971502661705017,0.02395576797425747,-0.32225263118743896,0.3065260052680969,-0.002379250479862094,0.01657058857381344,1.0000598430633545,104.8496322631836,0.0,0.0,0.0
162565.925,-0.012495343573391438,-0.020186541602015495,0.0016220287652686238,-0.02680261991918087,-0.021365882828831673,-0.006966217886656523,1.0785903930664062,-0.015429888851940632,1.9703391790390015,0.2746366560459137,-0.26702624559402466,-0.003242481965571642,-0.0013448243262246251,0.016666557639837265,0.9989215135574341,104.8496322631836,0.0,0.0,0.0
162569.928,-0.012495343573391438,-0.020186541602015495,0.0016220287652686238,-0.02680261991918087,-0.021365882828831673,-0.006966217886656523,1.0785903930664062,-0.015429888851940632,1.9703391790390015,0.12655560672283173,-0.07184479385614395,-0.11843746155500412,-0.0026123838033527136,0.01739780604839325,0.9988114237785339,104.87149810791016,0.0,0.0,0.0
162573.836,-0.01276423316448927,-0.020401116460561752,0.0015519480220973492,-0.026976091787219048,-0.02154845930635929,-0.007049157749861479,1.079325556755066,-0.013278795406222343,1.9684783220291138,0.25740715861320496,-0.16312792897224426,-0.02503291890025139,-0.003956264350563288,0.017873015254735947,0.9987034797668457,104.87149810791016,0.0,0.0,0.0
162577.802,-0.01276423316448927,-0.020401116460561752,0.0015519480220973492,-0.026976091787219048,-0.02154845930635929,-0.007049157749861479,1.079325556755066,-0.013278795406222343,1.9684783220291138,0.359271764755249,0.03813797980546951,-0.115560382604599,-0.003919930662959814,0.017970526590943336,0.9981428980827332,104.87149810791016,0.0,0.0,0.0
162581.742,-0.01276423316448927,-0.020401116460561752,0.0015519480220973492,-0.026976091787219048,-0.02154845930635929,-0.007049157749861479,1.079325556755066,-0.013278795406222343,1.9684783220291138,0.28896501660346985,0.1142294704914093,-0.002875771140679717,-0.00347158033400774,0.018145384266972542,0.9988489151000977,104.87149810791016,0.0,0.0,0.0
162585.699,-0.013035734184086323,-0.02061706781387329,0.0014807707630097866,-0.02732480876147747,-0.02164098247885704,-0.007185531780123711,1.0813748836517334,-0.013230627402663231,1.9659528732299805,0.041664108633995056,-0.08028107136487961,-0.08063507825136185,-0.0036583985202014446,0.0183872040361166,1.0012418031692505,104.87149810791016,0.0,0.0,0.0
162589.702,-0.013035734184086323,-0.02061706781387329,0.0014807707630097866,-0.02732480876147747,-0.02164098247885704,-0.007185531780123711,1.0813748836517334,-0.013230627402663231,1.9659528732299805,-0.1695319414138794,-0.04676349088549614,0.16060201823711395,-0.003193759359419346,0.01814313419163227,1.0012502670288086,104.80042266845703,0.0,0.0,0.0
162593.605,-0.013310503214597702,-0.02083384059369564,0.0014094434445723891,-0.027629736810922623,-0.02171270176768303,-0.0070791468024253845,1.0799789428710938,-0.012798290699720383,1.9642596244812012,-0.1930876225233078,-0.11551713943481445,-0.03534279763698578,-0.001772011979483068,0.01840791665017605,1.0004805326461792,104.80042266845703,0.0,0.0,0.0
162597.57,-0.013310503214597702,-0.02083384059369564,0.0014094434445723891,-0.027629736810922623,-0.02171270176768303,-0.0070791468024253845,1.0799789428710938,-0.012798290699720383,1.9642596244812012,-0.1912938356399536,0.2167692482471466,0.2529476284980774,-0.00152748788241297,0.01807286962866783,0.9995827674865723,104.80042266845703,0.0,0.0,0.0
162601.512,-0.013310503214597702,-0.02083384059369564,0.0014094434445723891,-0.027629736810922623,-0.02171270176768303,-0.0070791468024253845,1.0799789428710938,-0.012798290699720383,1.9642596244812012,0.045596372336149216,-0.23820389807224274,0.0772680714726448,-0.0013393391855061054,0.017504196614027023,0.9996522665023804,104.80042266845703,0.0,0.0,0.0
162605.471,-0.013587446883320808,-0.021051369607448578,0.0013386706123128533,-0.027759788557887077,-0.021792136132717133,-0.007074630819261074,1.077518105506897,-0.012880930677056313,1.9635889530181885,0.04040513560175896,-0.079564668238163,-0.07222641259431839,-0.0020075731445103884,0.01711130142211914,1.0013463497161865,104.80042266845703,0.0,0.0,0.0
162609.47,-0.013587446883320808,-0.021051369607448578,0.0013386706123128533,-0.027759788557887077,-0.021792136132717133,-0.007074630819261074,1.077518105506897,-0.012880930677056313,1.9635889530181885,0.009792828001081944,-0.0492623969912529,0.25035685300827026,-0.002801153576001525,0.016989080235362053,1.0019171237945557,104.76761627197266,0.0,0.0,0.0
162613.375,-0.013866012915968895,-0.021270200610160828,0.001268664258532226,-0.02795415185391903,-0.021973086521029472,-0.006925857160240412,1.076765537261963,-0.011942265555262566,1.9624626636505127,0.02849561907351017,0.03897519409656525,0.09460435062646866,-0.002939361147582531,0.01609845645725727,1.0016511678695679,104.76761627197266,0.0,0.0,0.0
162617.351,-0.013196112588047981,-0.02133050188422203,0.0005486505106091499,-0.023064931854605675,-0.022457869723439217,-0.011348802596330643,1.08256196975708,-0.04843912646174431,2.0059304237365723,0.2281203418970108,-0.3552532196044922,-0.021622052416205406,-0.0034851967357099056,0.015338040888309479,1.0013539791107178,104.76761627197266,0.0,0.0,0.0
162621.284,-0.013196112588047981,-0.02133050188422203,0.0005486505106091499,-0.023064931854605675,-0.022457869723439217,-0.011348802596330643,1.08256196975708,-0.04843912646174431,2.0059304237365723,0.25904831290245056,-0.223714217543602,0.0006437136908061802,-0.003148839110508561,0.01570378802716732,1.0008536577224731,104.76761627197266,0.0,0.0,0.0
162625.232,-0.013196112588047981,-0.02133050188422203,0.0005486505106091499,-0.023064931854605675,-0.022457869723439217,-0.011348802596330643,1.08256196975708,-0.04843912646174431,2.0059304237365723,0.06676892191171646,0.08059398084878922,-0.12038403004407883,-0.0028221141546964645,0.017573203891515732,0.9997909069061279,104.76761627197266,0.0,0.0,0.0
162629.234,-0.012783657759428024,-0.020791854709386826,0.0011047639418393373,-0.019317368045449257,-0.0183950737118721,-0.008139321580529213,1.0505239963531494,-0.07768911868333817,1.946070671081543,-0.016260050237178802,0.08512857556343079,-0.1466154307126999,-0.003974820487201214,0.018619278445839882,0.9991984963417053,104.78401947021484,0.0,0.0,0.0
162633.14,-0.01297781616449356,-0.020976081490516663,0.0010232810163870454,-0.019514990970492363,-0.018449585884809494,-0.00815656129270792,1.0501774549484253,-0.07798274606466293,1.9430540800094604,0.33485639095306396,-0.2546312212944031,-0.026082199066877365,-0.004160202108323574,0.019104545935988426,0.9992090463638306,104.78401947021484,0.0,0.0,0.0
162637.132,-0.012764448300004005,-0.020994151011109352,0.0006502681644633412,-0.017904428765177727,-0.01858212612569332,-0.01037571020424366,1.0519165992736816,-0.08990893512964249,1.983261227607727,0.050617411732673645,-0.08183836191892624,0.010595759376883507,-0.0038544218987226486,0.01961219683289528,0.9995361566543579,104.78401947021484,0.0,0.0,0.0
162641.048,-0.012764448300004005,-0.020994151011109352,0.0006502681644633412,-0.017904428765177727,-0.01858212612569332,-0.01037571020424366,1.0519165992736816,-0.08990893512964249,1.983261227607727,-0.12831851840019226,0.08929377049207687,0.15887708961963654,-0.003942547366023064,0.01896725594997406,1.0006455183029175,104.78401947021484,0.0,0.0,0.0
162645.004,-0.012944688089191914,-0.021179543808102608,0.0005464472924359143,-0.01814410462975502,-0.01849605143070221,-0.01038777269423008,1.051922082901001,-0.08876613527536392,1.9816091060638428,0.05935746058821678,0.15692344307899475,-0.23841437697410583,-0.003640144830569625,0.0179169699549675,1.000914216041565,104.78401947021484,0.0,0.0,0.0
162649.009,-0.012944688089191914,-0.021179543808102608,0.0005464472924359143,-0.01814410462975502,-0.01849605143070221,-0.01038777269423008,1.051922082901001,-0.08876613527536392,1.9816091060638428,0.1682049036026001,0.027114765718579292,-0.12638726830482483,-0.003798810066655278,0.016798444092273712,1.0010420083999634,104.81135559082031,0.0,0.0,0.0
162652.911,-0.012944688089191914,-0.021179543808102608,0.0005464472924359143,-0.01814410462975502,-0.01849605143070221,-0.01038777269423008,1.051922082901001,-0.08876613527536392,1.9816091060638428,0.11482813954353333,-0.016578465700149536,0.10138256847858429,-0.0036422410048544407,0.015725279226899147,1.0009950399398804,104.81135559082031,0.0,0.0,0.0
162656.883,-0.01323237270116806,-0.021666035056114197,-0.00012121717008994892,-0.018811531364917755,-0.02032923512160778,-0.013277667574584484,1.0654926300048828,-0.08682410418987274,1.9408948421478271,-0.17443135380744934,0.14408832788467407,-0.14185550808906555,-0.003782626474276185,0.01606188528239727,1.0014584064483643,104.81135559082031,0.0,0.0,0.0
162660.821,-0.01323237270116806,-0.021666035056114197,-0.00012121717008994892,-0.018811531364917755,-0.02032923512160778,-0.013277667574584484,1.0654926300048828,-0.08682410418987274,1.9408948421478271,0.03139731287956238,-0.09439393877983093,0.037911515682935715,-0.004213117528706789,0.017854899168014526,1.0025328397750854,104.81135559082031,0.0,0.0,0.0
162664.78,-0.013421585783362389,-0.021870484575629234,-0.00025316825485788286,-0.019031712785363197,-0.020560381934046745,-0.013111820444464684,1.0641521215438843,-0.0870342031121254,1.9388068914413452,0.21308961510658264,-0.09909503161907196,0.09133484214544296,-0.003593191970139742,0.01793678104877472,1.0016553401947021,104.81135559082031,0.0,0.0,0.0
162668.778,-0.007968534715473652,-0.016926703974604607,0.0007313071400858462,0.009245368652045727,0.00829810556024313,-0.012627004645764828,0.8468381762504578,-0.3115641474723816,1.9646880626678467,0.09552288055419922,-0.16240698099136353,-0.039344560354948044,-0.003358307760208845,0.017518596723675728,0.9999862909317017,104.78401947021484,0.0,0.0,0.0
162672.685,-0.007875231094658375,-0.016842210665345192,0.0006056053098291159,0.009415721520781517,0.008599887602031231,-0.012513014487922192,0.8471219539642334,-0.3100410997867584,1.9629530906677246,-0.0581449456512928,-0.022638676688075066,-0.1784389168024063,-0.0037064708303660154,0.01814635470509529,0.9990086555480957,104.78401947021484,0.0,0.0,0.0
162676.651,-0.007875231094658375,-0.016842210665345192,0.0006056053098291159,0.009415721520781517,0.008599887602031231,-0.012513014487922192,0.8471219539642334,-0.3100410997867584,1.9629530906677246,0.016032734885811806,-0.20601888000965118,-0.32843533158302307,-0.0037196374032646418,0.017659611999988556,0.9992151260375977,104.78401947021484,0.0,0.0,0.0
162680.592,-0.007875231094658375,-0.016842210665345192,0.0006056053098291159,0.009415721520781517,0.008599887602031231,-0.012513014487922192,0.8471219539642334,-0.3100410997867584,1.9629530906677246,-0.10843528807163239,0.0715002566576004,0.08543745428323746,-0.003402634058147669,0.017296399921178818,0.9990987777709961,104.78401947021484,0.0,0.0,0.0
162684.54,-0.007780251558870077,-0.01675472781062126,0.0004801148606929928,0.00958056841045618,0.008896063081920147,-0.012584737502038479,0.8458588719367981,-0.30901455879211426,1.958983302116394,0.0577964149415493,-0.1251802146434784,0.18125812709331512,-0.00393922021612525,0.0179600790143013,0.9993709921836853,104.78401947021484,0.0,0.0,0.0
162688.552,-0.005144024267792702,-0.014934091828763485,0.0010341188171878457,0.02238858863711357,0.019877929240465164,-0.01097002625465393,0.7626104354858398,-0.41317808628082275,1.9714571237564087,-0.23758813738822937,-0.2572663128376007,0.007580893114209175,-0.0037345632445067167,0.01818118989467621,1.000308871269226,104.6910629272461,0.0,0.0,0.0
162692.453,-0.004918510559946299,-0.01473299227654934,0.0009244102984666824,0.02271495759487152,0.020341113209724426,-0.010971385054290295,0.7609836459159851,-0.41125407814979553,1.9705201387405396,-0.09745347499847412,-0.11107450723648071,0.09245020151138306,-0.002918076002970338,0.01739300973713398,1.0014026165008545,104.6910629272461,0.0,0.0,0.0
162696.419,-0.006045764312148094,-0.014293509535491467,0.0025702733546495438,0.01743818260729313,0.022997550666332245,-0.0010019195033237338,0.7383716106414795,-0.36770039796829224,1.9960238933563232,0.2082451581954956,-0.19557908177375793,-0.16707254946231842,-0.002793980995193124,0.018238933756947517,1.0013715028762817,104.6910629272461,0.0,0.0,0.0
162700.359,-0.006045764312148094,-0.014293509535491467,0.0025702733546495438,0.01743818260729313,0.022997550666332245,-0.0010019195033237338,0.7383716106414795,-0.36770039796829224,1.9960238933563232,0.16430586576461792,-0.024785656481981277,-0.12260371446609497,-0.003351016202941537,0.019151024520397186,1.0026293992996216,104.6910629272461,0.0,0.0,0.0
162704.314,-0.005869762040674686,-0.014060888439416885,0.0025611426681280136,0.017763059586286545,0.023525970056653023,-0.0008240140741690993,0.7385490536689758,-0.36600735783576965,1.9932698011398315,-0.03614530339837074,-0.339905321598053,0.04456369951367378,-0.004063460044562817,0.01845761202275753,1.001602053642273,104.6910629272461,0.0,0.0,0.0
162708.32,-0.005869762040674686,-0.014060888439416885,0.0025611426681280136,0.017763059586286545,0.023525970056653023,-0.0008240140741690993,0.7385490536689758,-0.36600735783576965,1.9932698011398315,0.01745777390897274,-0.21372370421886444,0.10651924461126328,-0.003740607528015971,0.017569737508893013,1.0012283325195312,104.72386169433594,0.0,0.0,0.0
162712.226,-0.005690951831638813,-0.013823010958731174,0.0025537628680467606,0.01799984648823738,0.02404896356165409,-0.0006517260335385799,0.7380316257476807,-0.3634597659111023,1.9918560981750488,0.06744537502527237,-0.09892378002405167,0.041786082088947296,-0.0030865524895489216,0.017525432631373405,1.001038908958435,104.72386169433594,0.0,0.0,0.0
162716.184,-0.006362733896821737,-0.013769514858722687,0.003739830804988742,0.01476852223277092,0.02416067384183407,0.006870828568935394,0.7367794513702393,-0.33586713671684265,2.020526885986328,-0.1694846898317337,-0.1425492763519287,-0.0869176834821701,-0.00322131160646677,0.016724437475204468,1.0004808902740479,104.72386169433594,0.0,0.0,0.0
162720.128,-0.006362733896821737,-0.013769514858722687,0.003739830804988742,0.01476852223277092,0.02416067384183407,0.006870828568935394,0.7367794513702393,-0.33586713671684265,2.020526885986328,-0.10581935197114944,-0.029053179547190666,0.0701742023229599,-0.004197581205517054,0.01635192707180977,1.0003998279571533,104.72386169433594,0.0,0.0,0.0
162724.084,-0.006213854998350143,-0.01352585107088089,0.0038089468143880367,0.015008069574832916,0.024571696296334267,0.006952522322535515,0.735271155834198,-0.3344416618347168,2.0183300971984863,-0.17778785526752472,0.20780815184116364,-0.1603030413389206,-0.00552238617092371,0.016176046803593636,1.000571370124817,104.72386169433594,0.0,0.0,0.0
162728.094,-0.008791261352598667,-0.016094908118247986,0.0019836886785924435,0.0042325654067099094,0.008200937882065773,-0.0022786420304328203,0.8643325567245483,-0.24214182794094086,1.9781906604766846,-0.010720768012106419,-0.21442560851573944,-0.002321152715012431,-0.005598824936896563,0.016528243198990822,0.999899685382843,104.73480224609375,0.0,0.0,0.0
162731.999,-0.008749468252062798,-0.01601231098175049,0.001961116213351488,0.004126390442252159,0.008318228647112846,-0.0022355574183166027,0.8624660968780518,-0.24196584522724152,1.9756532907485962,0.2614612877368927,-0.05990193784236908,0.09463384747505188,-0.004889266565442085,0.01755647175014019,1.0010098218917847,104.73480224609375,0.0,0.0,0.0
162735.963,-0.008749468252062798,-0.01601231098175049,0.001961116213351488,0.004126390442252159,0.008318228647112846,-0.0022355574183166027,0.8624660968780518,-0.24196584522724152,1.9756532907485962,0.09337405115365982,-0.10724452883005142,-0.16499276459217072,-0.0035979615058749914,0.01669728197157383,1.0004645586013794,104.73480224609375,0.0,0.0,0.0
162739.901,-0.008749468252062798,-0.01601231098175049,0.001961116213351488,0.004126390442252159,0.008318228647112846,-0.0022355574183166027,0.8624660968780518,-0.24196584522724152,1.9756532907485962,-0.016361113637685776,-0.20198090374469757,-0.220315083861351,-0.004084100015461445,0.015823695808649063,0.9989722371101379,104.73480224609375,0.0,0.0,0.0
162743.849,-0.008708246983587742,-0.0159282349050045,0.0019390513189136982,0.004118236247450113,0.008496862836182117,-0.002177152084186673,0.8630558252334595,-0.2406320571899414,1.972997784614563,0.03129938989877701,0.02026221714913845,-0.06234008073806763,-0.004581841174513102,0.01662682741880417,0.9974837899208069,104.73480224609375,0.0,0.0,0.0
162747.859,-0.008708246983587742,-0.0159282349050045,0.0019390513189136982,0.004118236247450113,0.008496862836182117,-0.002177152084186673,0.8630558252334595,-0.2406320571899414,1.972997784614563,-0.02590060606598854,0.04143378511071205,0.1555936485528946,-0.004776237532496452,0.016809659078717232,0.9975804090499878,104.81681823730469,0.0,0.0,0.0
162751.758,-0.008667278103530407,-0.015842540189623833,0.0019163067918270826,0.004075890872627497,0.008641879074275494,-0.0023714660201221704,0.8619595766067505,-0.24015919864177704,1.9710874557495117,-0.311344712972641,0.05608405917882919,0.23546133935451508,-0.004429973196238279,0.016702068969607353,0.9986202120780945,104.81681823730469,0.0,0.0,0.0
162755.733,-0.008667278103530407,-0.015842540189623833,0.0019163067918270826,0.004075890872627497,0.008641879074275494,-0.0023714660201221704,0.8619595766067505,-0.24015919864177704,1.9710874557495117,0.09311918914318085,-0.1567547470331192,-0.1811230480670929,-0.0037271794863045216,0.016622643917798996,0.9992953538894653,104.81681823730469,0.0,0.0,0.0
162759.672,-0.008667278103530407,-0.015842540189623833,0.0019163067918270826,0.004075890872627497,0.008641879074275494,-0.0023714660201221704,0.8619595766067505,-0.24015919864177704,1.9710874557495117,0.16024529933929443,-0.0933925211429596,-0.2649249732494354,-0.0037061735056340694,0.016157612204551697,1.000473141670227,104.81681823730469,0.0,0.0,0.0
162763.621,-0.008626445196568966,-0.015755362808704376,0.0018922679591923952,0.004090982489287853,0.008793250657618046,-0.002436029724776745,0.860615074634552,-0.2392197549343109,1.9685430526733398,-0.1221335157752037,-0.13970111310482025,0.12838783860206604,-0.0032860366627573967,0.017099348828196526,1.001018762588501,104.81681823730469,0.0,0.0,0.0
162767.625,-0.008626445196568966,-0.015755362808704376,0.0018922679591923952,0.004090982489287853,0.008793250657618046,-0.002436029724776745,0.860615074634552,-0.2392197549343109,1.9685430526733398,0.23967120051383972,-0.158014714717865,0.1292533129453659,-0.002804590156301856,0.01823991909623146,1.0010066032409668,104.86603546142578,0.0,0.0,0.0
162771.531,-0.005340564530342817,-0.013380342163145542,0.0031142192892730236,0.021794581785798073,0.02288006991147995,0.0030636508017778397,0.7548644542694092,-0.3842514157295227,1.9896924495697021,0.17248602211475372,-0.16973872482776642,-0.04027042165398598,-0.00273846834897995,0.017774423584342003,1.0012749433517456,104.86603546142578,0.0,0.0,0.0
162775.504,-0.005340564530342817,-0.013380342163145542,0.0031142192892730236,0.021794581785798073,0.02288006991147995,0.0030636508017778397,0.7548644542694092,-0.3842514157295227,1.9896924495697021,-0.16863377392292023,0.15324904024600983,0.17618152499198914,-0.003376613836735487,0.01716924086213112,1.0010913610458374,104.86603546142578,0.0,0.0,0.0
162779.436,-0.005340564530342817,-0.013380342163145542,0.0031142192892730236,0.021794581785798073,0.02288006991147995,0.0030636508017778397,0.7548644542694092,-0.3842514157295227,1.9896924495697021,0.06750516593456268,0.4732154607772827,-0.10065416991710663,-0.00392651092261076,0.017339646816253662,1.0011368989944458,104.86603546142578,0.0,0.0,0.0
162783.393,-0.005121041089296341,-0.013149416074156761,0.003145496128126979,0.02211087942123413,0.023304447531700134,0.003191955853253603,0.754143476486206,-0.3853451609611511,1.9879014492034912,-0.15551863610744476,0.10935929417610168,-0.11945950984954834,-0.004572814796119928,0.017388775944709778,1.0009174346923828,104.86603546142578,0.0,0.0,0.0
162787.392,-0.005121041089296341,-0.013149416074156761,0.003145496128126979,0.02211087942123413,0.023304447531700134,0.003191955853253603,0.754143476486206,-0.3853451609611511,1.9879014492034912,-0.16512656211853027,-0.14716540277004242,0.17029546201229095,-0.00503333006054163,0.018174907192587852,1.0008944272994995,104.8496322631836,0.0,0.0,0.0
162791.303,-0.003853978356346488,-0.012295780703425407,0.003630318446084857,0.030513307079672813,0.028991853818297386,0.005448802374303341,0.7098951935768127,-0.45626381039619446,1.993170142173767,0.15046577155590057,0.1844600886106491,0.2884211540222168,-0.004821292590349913,0.01804364286363125,1.0000284910202026,104.8496322631836,0.0,0.0,0.0
162795.265,-0.0035165511071681976,-0.011973589658737183,0.0036908062174916267,0.030838102102279663,0.02958727814257145,0.0055492655374109745,0.7081244587898254,-0.45617929100990295,1.9916990995407104,-0.03205658495426178,0.04362531006336212,0.20353277027606964,-0.00395802641287446,0.017164988443255424,1.0011022090911865,104.8496322631836,0.0,0.0,0.0
162799.21,-0.0035165511071681976,-0.011973589658737183,0.0036908062174916267,0.030838102102279663,0.02958727814257145,0.0055492655374109745,0.7081244587898254,-0.45617929100990295,1.9916990995407104,-0.3438795208930969,0.17151235044002533,0.1777936816215515,-0.0032837805338203907,0.01683274656534195,1.0017211437225342,104.8496322631836,0.0,0.0,0.0
162803.163,-0.0031749969348311424,-0.011645154096186161,0.0037525519728660583,0.03126363083720207,0.030127225443720818,0.005677508655935526,0.706148087978363,-0.45709624886512756,1.9921600818634033,-0.15367817878723145,-0.016710126772522926,0.0950617715716362,-0.003092752303928137,0.01772158034145832,1.0001285076141357,104.8496322631836,0.0,0.0,0.0
162807.168,-0.0031749969348311424,-0.011645154096186161,0.0037525519728660583,0.03126363083720207,0.030127225443720818,0.005677508655935526,0.706148087978363,-0.45709624886512756,1.9921600818634033,0.23830121755599976,0.051908887922763824,-0.2288523018360138,-0.0029218699783086777,0.018048280850052834,0.9985986948013306,104.80042266845703,0.0,0.0,0.0
162811.067,-0.0031749969348311424,-0.011645154096186161,0.0037525519728660583,0.03126363083720207,0.030127225443720818,0.005677508655935526,0.706148087978363,-0.45709624886512756,1.9921600818634033,-0.058862898498773575,0.07700099050998688,-0.04608193412423134,-0.0031686488073319197,0.018395498394966125,0.9973640441894531,104.80042266845703,0.0,0.0,0.0
162815.042,-0.0028600390069186687,-0.011340999975800514,0.003808822715654969,0.03172899782657623,0.03070247732102871,0.00557692302390933,0.7058355808258057,-0.4570879340171814,1.989275574684143,-0.021463634446263313,-0.21419380605220795,-0.08667316287755966,-0.0034609497524797916,0.01840456947684288,0.9981092214584351,104.80042266845703,0.0,0.0,0.0
162818.972,-0.0028600390069186687,-0.011340999975800514,0.003808822715654969,0.03172899782657623,0.03070247732102871,0.00557692302390933,0.7058355808258057,-0.4570879340171814,1.989275574684143,-0.2097674310207367,0.18326622247695923,-0.14629144966602325,-0.0039015053771436214,0.017730535939335823,1.000536561012268,104.80042266845703,0.0,0.0,0.0
162822.93,-0.0025407150387763977,-0.011031067930161953,0.003864262718707323,0.03213685005903244,0.031282808631658554,0.005511334165930748,0.7039612531661987,-0.4565192461013794,1.986627459526062,-0.11366771906614304,-0.04812483862042427,0.18562397360801697,-0.004115257412195206,0.017321432009339333,1.0025994777679443,104.80042266845703,0.0,0.0,0.0
162826.936,-0.0025407150387763977,-0.011031067930161953,0.003864262718707323,0.03213685005903244,0.031282808631658554,0.005511334165930748,0.7039612531661987,-0.4565192461013794,1.986627459526062,-0.2700905501842499,0.2060200273990631,0.06560906767845154,-0.004402512684464455,0.016932915896177292,1.0025289058685303,104.81681823730469,0.0,0.0,0.0
162830.847,-0.0025407150387763977,-0.011031067930161953,0.003864262718707323,0.03213685005903244,0.031282808631658554,0.005511334165930748,0.7039612531661987,-0.4565192461013794,1.986627459526062,-0.09309246391057968,0.11597507447004318,-0.03639733046293259,-0.004367714747786522,0.016526788473129272,1.0008368492126465,104.81681823730469,0.0,0.0,0.0
162834.801,-0.00221761642023921,-0.010715891607105732,0.003920533694326878,0.032483913004398346,0.0317513532936573,0.005743102170526981,0.7014336585998535,-0.4572485387325287,1.9854402542114258,0.11032787710428238,-0.20981398224830627,-0.06119518354535103,-0.004543031100183725,0.016188953071832657,0.9993852972984314,104.81681823730469,0.0,0.0,0.0
162838.748,-0.00221761642023921,-0.010715891607105732,0.003920533694326878,0.032483913004398346,0.0317513532936573,0.005743102170526981,0.7014336585998535,-0.4572485387325287,1.9854402542114258,0.017926769331097603,0.06045277416706085,0.034965548664331436,-0.0039682406932115555,0.01659535989165306,0.9999167323112488,104.81681823730469,0.0,0.0,0.0
162842.7,-0.0018910131184384227,-0.010396239347755909,0.0039779068902134895,0.03283781185746193,0.0321781262755394,0.005731768440455198,0.7011926174163818,-0.45618781447410583,1.9836057424545288,0.08034475147724152,-0.05703582242131233,0.3843739628791809,-0.0035998180974274874,0.017609084025025368,1.0000571012496948,104.81681823730469,0.0,0.0,0.0
162846.702,-0.0018910131184384227,-0.010396239347755909,0.0039779068902134895,0.03283781185746193,0.0321781262755394,0.005731768440455198,0.7011926174163818,-0.45618781447410583,1.9836057424545288,-0.027653107419610023,-0.11541200429201126,0.06562765687704086,-0.004205593839287758,0.017296530306339264,1.0000331401824951,104.83322143554688,0.0,0.0,0.0
162850.609,-0.0018910131184384227,-0.010396239347755909,0.0039779068902134895,0.03283781185746193,0.0321781262755394,0.005731768440455198,0.7011926174163818,-0.45618781447410583,1.9836057424545288,-0.07851491868495941,0.00250084325671196,0.05013937130570412,-0.005159482359886169,0.01793970726430416,1.0014681816101074,104.83322143554688,0.0,0.0,0.0
162854.59,-0.003410155652090907,-0.009168541990220547,0.00793228019028902,0.021291522309184074,0.03605516627430916,0.02618599310517311,0.675406813621521,-0.3603377640247345,2.0119857788085938,0.09327975660562515,0.19772101938724518,0.1126927062869072,-0.005387748125940561,0.01967368833720684,1.0023897886276245,104.83322143554688,0.0,0.0,0.0
162858.518,-0.003410155652090907,-0.009168541990220547,0.00793228019028902,0.021291522309184074,0.03605516627430916,0.02618599310517311,0.675406813621521,-0.3603377640247345,2.0119857788085938,0.17062078416347504,0.21062321960926056,-0.04735157638788223,-0.004569218493998051,0.020925110206007957,1.0027220249176025,104.83322143554688,0.0,0.0,0.0
162862.476,-0.003410155652090907,-0.009168541990220547,0.00793228019028902,0.021291522309184074,0.03605516627430916,0.02618599310517311,0.675406813621521,-0.3603377640247345,2.0119857788085938,0.3916952908039093,-0.26806315779685974,-0.0729573518037796,-0.0036560737062245607,0.019950198009610176,1.002756118774414,104.83322143554688,0.0,0.0,0.0
162866.47,-0.003196648322045803,-0.008803781121969223,0.008195492438971996,0.02141106128692627,0.03689651936292648,0.0264565572142601,0.6764004230499268,-0.36146897077560425,2.0099523067474365,0.007996117696166039,-0.17544031143188477,0.15634047985076904,-0.0027610957622528076,0.017488962039351463,1.0027886629104614,104.7785415649414,0.0,0.0,0.0
162870.389,-0.00324095762334764,-0.008783204481005669,0.008014395833015442,0.02110099606215954,0.03706184774637222,0.025412622839212418,0.6749497652053833,-0.35911431908607483,2.0170435905456543,0.028034808114171028,-0.004986299201846123,0.12459762394428253,-0.0033019997645169497,0.016573728993535042,1.002259612083435,104.7785415649414,0.0,0.0,0.0
162874.344,-0.003028490347787738,-0.008409632369875908,0.008269866928458214,0.02139359340071678,0.037652116268873215,0.025681715458631516,0.6754394769668579,-0.3571939468383789,2.0158908367156982,0.10409076511859894,0.033865541219711304,-0.04851599410176277,-0.003913565073162317,0.016497604548931122,1.0010199546813965,104.7785415649414,0.0,0.0,0.0
162878.286,-0.003028490347787738,-0.008409632369875908,0.008269866928458214,0.02139359340071678,0.037652116268873215,0.025681715458631516,0.6754394769668579,-0.3571939468383789,2.0158908367156982,0.1602730005979538,0.10353215783834457,-0.43062570691108704,-0.004224537871778011,0.016445692628622055,1.0008677244186401,104.7785415649414,0.0,0.0,0.0
162882.239,-0.003028490347787738,-0.008409632369875908,0.008269866928458214,0.02139359340071678,0.037652116268873215,0.025681715458631516,0.6754394769668579,-0.3571939468383789,2.0158908367156982,0.31395968794822693,0.0117685217410326,-0.08178042620420456,-0.00442095659673214,0.01556245144456625,1.0009938478469849,104.7785415649414,0.0,0.0,0.0
162886.244,-0.0028135799802839756,-0.008030843921005726,0.008527247235178947,0.021589672192931175,0.03810508921742439,0.02579435519874096,0.6763548851013184,-0.3575223684310913,2.011716604232788,0.15315532684326172,-0.16633537411689758,-0.04125231131911278,-0.0038526400458067656,0.01494564674794674,1.0004650354385376,104.78948211669922,0.0,0.0,0.0
162890.145,-0.0028135799802839756,-0.008030843921005726,0.008527247235178947,0.021589672192931175,0.03810508921742439,0.02579435519874096,0.6763548851013184,-0.3575223684310913,2.011716604232788,-0.0593833364546299,0.02575921267271042,-0.07529023289680481,-0.003502841806039214,0.015807677060365677,1.0000158548355103,104.78948211669922,0.0,0.0,0.0
162894.123,-0.0025965755339711905,-0.007648004684597254,0.008785455487668514,0.021812397986650467,0.03846224024891853,0.025847310200333595,0.6768012642860413,-0.3566224277019501,2.0090792179107666,-0.0356605164706707,0.06236474588513374,0.06020677462220192,-0.004003779962658882,0.017356116324663162,0.9985854625701904,104.78948211669922,0.0,0.0,0.0
162898.064,-0.0025965755339711905,-0.007648004684597254,0.008785455487668514,0.021812397986650467,0.03846224024891853,0.025847310200333595,0.6768012642860413,-0.3566224277019501,2.0090792179107666,0.3264094293117523,-0.08624088764190674,-0.08788105845451355,-0.004377935081720352,0.017817841842770576,0.998553991317749,104.78948211669922,0.0,0.0,0.0
162902.015,-0.0025965755339711905,-0.007648004684597254,0.008785455487668514,0.021812397986650467,0.03846224024891853,0.025847310200333595,0.6768012642860413,-0.3566224277019501,2.0090792179107666,-0.053783562034368515,-0.06297452747821808,-0.08481735736131668,-0.0046079447492957115,0.017352838069200516,0.9990808367729187,104.78948211669922,0.0,0.0,0.0
162906.008,-0.002377572702243924,-0.007260559126734734,0.009043357335031033,0.0219893679022789,0.039026372134685516,0.025733184069395065,0.677263617515564,-0.3560919463634491,2.0067625045776367,0.07397852092981339,-0.08133041113615036,0.09981925040483475,-0.003958414308726788,0.01657085120677948,1.0006157159805298,104.83322143554688,0.0,0.0,0.0
162909.919,-0.005063056945800781,-0.012652646750211716,0.004492106847465038,0.0012364204740151763,0.00867405254393816,0.005556035321205854,0.917412519454956,-0.1753711998462677,1.9665157794952393,0.19900664687156677,-0.15012817084789276,0.03957667946815491,-0.004472137428820133,0.016125470399856567,1.001343011856079,104.83322143554688,0.0,0.0,0.0
162913.888,-0.005051300395280123,-0.012565648183226585,0.004547990392893553,0.0011151436483487487,0.008725724183022976,0.005620905198156834,0.9172537922859192,-0.1741858571767807,1.964968204498291,0.11048220098018646,0.1065196692943573,-0.032781392335891724,-0.004714850801974535,0.015275550074875355,1.0010343790054321,104.83322143554688,0.0,0.0,0.0
162917.825,-0.005051300395280123,-0.012565648183226585,0.004547990392893553,0.0011151436483487487,0.008725724183022976,0.005620905198156834,0.9172537922859192,-0.1741858571767807,1.964968204498291,0.17151324450969696,0.10950329899787903,-0.08343198895454407,-0.0034432532265782356,0.016271959990262985,1.0012391805648804,104.83322143554688,0.0,0.0,0.0
162921.785,-0.005051300395280123,-0.012565648183226585,0.004547990392893553,0.0011151436483487487,0.008725724183022976,0.005620905198156834,0.9172537922859192,-0.1741858571767807,1.964968204498291,-0.008796125650405884,0.13625140488147736,-0.0586673878133297,-0.0034545704256743193,0.017086463049054146,1.000730037689209,104.83322143554688,0.0,0.0,0.0
162925.783,-0.005040622316300869,-0.012478425167500973,0.004604807589203119,0.0010207929881289601,0.008718851953744888,0.005742782261222601,0.9175571203231812,-0.17491234838962555,1.9623945951461792,-0.10084698349237442,0.091971755027771,0.00398469902575016,-0.0035565237049013376,0.016442563384771347,1.0005817413330078,104.92071533203125,0.0,0.0,0.0
162929.689,-0.005040622316300869,-0.012478425167500973,0.004604807589203119,0.0010207929881289601,0.008718851953744888,0.005742782261222601,0.9175571203231812,-0.17491234838962555,1.9623945951461792,0.030530698597431183,0.050993211567401886,-0.1854982227087021,-0.004271211568266153,0.016681058332324028,1.0015933513641357,104.92071533203125,0.0,0.0,0.0
162933.663,-0.0050307707861065865,-0.01239093393087387,0.004662768449634314,0.0009497518767602742,0.008779396302998066,0.005849639885127544,0.9163317084312439,-0.17563198506832123,1.9599013328552246,0.03757599741220474,-0.07388459891080856,-0.24098087847232819,-0.004603553097695112,0.01686977595090866,1.0013636350631714,104.92071533203125,0.0,0.0,0.0
162937.603,-0.0050307707861065865,-0.01239093393087387,0.004662768449634314,0.0009497518767602742,0.008779396302998066,0.005849639885127544,0.9163317084312439,-0.17563198506832123,1.9599013328552246,0.2420421689748764,-0.28796204924583435,0.22308777272701263,-0.004193339962512255,0.01704065129160881,0.9998623132705688,104.92071533203125,0.0,0.0,0.0
162941.546,-0.0050307707861065865,-0.01239093393087387,0.004662768449634314,0.0009497518767602742,0.008779396302998066,0.005849639885127544,0.9163317084312439,-0.17563198506832123,1.9599013328552246,0.10063883662223816,-0.3362261950969696,0.13489508628845215,-0.003988348413258791,0.016890021041035652,1.0010786056518555,104.92071533203125,0.0,0.0,0.0
162945.547,-0.005021913908421993,-0.012302707880735397,0.004721671808511019,0.0008218997973017395,0.008865837007761002,0.005931308958679438,0.9167275428771973,-0.17357026040554047,1.958055019378662,0.0024802638217806816,0.028484374284744263,-0.11377831548452377,-0.004315161146223545,0.017299117520451546,1.002332329750061,104.92617797851562,0.0,0.0,0.0
162949.456,-0.003940364345908165,-0.011632470414042473,0.004952665418386459,0.008543893694877625,0.013299829326570034,0.006858590058982372,0.8802918791770935,-0.24063566327095032,1.9673688411712646,-0.022316012531518936,-0.18785618245601654,0.005731397308409214,-0.004201783798635006,0.017633603885769844,1.0019397735595703,104.92617797851562,0.0,0.0,0.0
162953.42,-0.003854945069178939,-0.011498523876070976,0.005022288300096989,0.008540382608771324,0.013489305041730404,0.007066191174089909,0.8795406222343445,-0.23916314542293549,1.9650583267211914,0.10234885662794113,-0.09665520489215851,-0.0751396045088768,-0.003721832297742367,0.017710819840431213,1.000465750694275,104.92617797851562,0.0,0.0,0.0
162957.372,-0.003854945069178939,-0.011498523876070976,0.005022288300096989,0.008540382608771324,0.013489305041730404,0.007066191174089909,0.8795406222343445,-0.23916314542293549,1.9650583267211914,0.24019160866737366,-0.052879951894283295,-0.07413076609373093,-0.0031472824048250914,0.01763075403869152,0.9992243051528931,104.92617797851562,0.0,0.0,0.0
162961.318,-0.003854945069178939,-0.011498523876070976,0.005022288300096989,0.008540382608771324,0.013489305041730404,0.007066191174089909,0.8795406222343445,-0.23916314542293549,1.9650583267211914,0.0510999895632267,-0.31988051533699036,-0.14499777555465698,-0.003510414157062769,0.01811443641781807,0.998732328414917,104.92617797851562,0.0,0.0,0.0
162965.331,-0.0037692326586693525,-0.01136245671659708,0.005092915613204241,0.008602526038885117,0.013723979704082012,0.0070594665594398975,0.8800615072250366,-0.237756609916687,1.962382197380066,0.1942298263311386,-0.14295518398284912,0.07508134096860886,-0.0038116988725960255,0.018041783943772316,0.9987910985946655,104.89884185791016,0.0,0.0,0.0
162969.244,-0.0032706372439861298,-0.011020259000360966,0.005119006615132093,0.012236411683261395,0.016053466126322746,0.007050553802400827,0.8604466319084167,-0.26998698711395264,1.983152985572815,-0.3267025053501129,0.014746959321200848,0.17342601716518402,-0.004407383967190981,0.017135033383965492,0.9984591603279114,104.89884185791016,0.0,0.0,0.0
162973.194,-0.0031479457393288612,-0.010858356021344662,0.005188939161598682,0.012302412651479244,0.016326840966939926,0.006936218123883009,0.8594297766685486,-0.2683429419994354,1.9816031455993652,-0.12493734806776047,0.34935396909713745,0.04470396041870117,-0.0040242173708975315,0.01658955216407776,0.998604953289032,104.89884185791016,0.0,0.0,0.0
162977.133,-0.0031479457393288612,-0.010858356021344662,0.005188939161598682,0.012302412651479244,0.016326840966939926,0.006936218123883009,0.8594297766685486,-0.2683429419994354,1.9816031455993652,0.10429815202951431,0.21453161537647247,-0.11709275841712952,-0.003311121603474021,0.017045393586158752,0.9988503456115723,104.89884185791016,0.0,0.0,0.0
162981.089,-0.0031479457393288612,-0.010858356021344662,0.005188939161598682,0.012302412651479244,0.016326840966939926,0.006936218123883009,0.8594297766685486,-0.2683429419994354,1.9816031455993652,-0.2573179006576538,0.11210547387599945,-0.17540156841278076,-0.0036191127728670835,0.018159080296754837,0.9985740780830383,104.89884185791016,0.0,0.0,0.0
162985.091,-0.0030244612134993076,-0.010694082826375961,0.005257736425846815,0.012395021505653858,0.01652752049267292,0.006823425646871328,0.857964813709259,-0.2706555724143982,1.9791114330291748,0.008458806201815605,-0.16609665751457214,-0.02169179730117321,-0.004117636475712061,0.018327556550502777,0.9981430172920227,104.90431213378906,0.0,0.0,0.0
162988.995,-0.0030244612134993076,-0.010694082826375961,0.005257736425846815,0.012395021505653858,0.01652752049267292,0.006823425646871328,0.857964813709259,-0.2706555724143982,1.9791114330291748,-0.22803926467895508,-0.08141455054283142,0.07868265360593796,-0.003911337815225124,0.018295850604772568,0.9979974627494812,104.90431213378906,0.0,0.0,0.0
162992.962,-0.0029001988004893064,-0.010527149774134159,0.0053251683712005615,0.012457996606826782,0.016858702525496483,0.006663106847554445,0.8557043671607971,-0.2695872485637665,1.9769861698150635,0.10022713243961334,-0.37036845088005066,0.03468424454331398,-0.0048112873919308186,0.01858406513929367,0.9995019435882568,104.90431213378906,0.0,0.0,0.0
162996.905,-0.0029001988004893064,-0.010527149774134159,0.0053251683712005615,0.012457996606826782,0.016858702525496483,0.006663106847554445,0.8557043671607971,-0.2695872485637665,1.9769861698150635,0.0976686179637909,0.10184892266988754,0.07881800830364227,-0.0050194947980344296,0.01877169869840145,1.0003741979599,104.90431213378906,0.0,0.0,0.0
163000.86,-0.0029001988004893064,-0.010527149774134159,0.0053251683712005615,0.012457996606826782,0.016858702525496483,0.006663106847554445,0.8557043671607971,-0.2695872485637665,1.9769861698150635,0.07471901923418045,-0.00824884232133627,0.044774558395147324,-0.005077665206044912,0.01768411509692669,0.9999431371688843,104.90431213378906,0.0,0.0,0.0
163004.865,-0.0029001988004893064,-0.010527149774134159,0.0053251683712005615,0.012457996606826782,0.016858702525496483,0.006663106847554445,0.8557043671607971,-0.2695872485637665,1.9769861698150635,0.1491680145263672,0.015564695931971073,0.04517160356044769,-0.0050080218352377415,0.017204780131578445,1.0002143383026123,104.80042266845703,0.0,0.0,0.0
163008.779,-0.004198898561298847,-0.013799519278109074,0.0033415460493415594,-0.0003111114492639899,-0.003032058011740446,-0.001882555428892374,1.0288137197494507,-0.1409156769514084,1.9307814836502075,-0.06837232410907745,-0.021138790994882584,-0.10373368859291077,-0.0051620127633214,0.01706334576010704,1.0002806186676025,104.80042266845703,0.0,0.0,0.0
163012.737,-0.004203281830996275,-0.013830236159265041,0.003322885138913989,-0.0005656484281644225,-0.0031113119330257177,-0.0018491663504391909,1.0283840894699097,-0.1408006101846695,1.9287277460098267,-0.07227782905101776,0.049895744770765305,0.07650289684534073,-0.005052872467786074,0.016757581382989883,1.0003435611724854,104.80042266845703,0.0,0.0,0.0
163016.677,-0.004203281830996275,-0.013830236159265041,0.003322885138913989,-0.0005656484281644225,-0.0031113119330257177,-0.0018491663504391909,1.0283840894699097,-0.1408006101846695,1.9287277460098267,0.12423699349164963,-0.06913742423057556,-0.013494441285729408,-0.003775262041017413,0.015576147474348545,1.0001938343048096,104.80042266845703,0.0,0.0,0.0
163020.628,-0.004203281830996275,-0.013830236159265041,0.003322885138913989,-0.0005656484281644225,-0.0031113119330257177,-0.0018491663504391909,1.0283840894699097,-0.1408006101846695,1.9287277460098267,-0.17922328412532806,0.07005559653043747,0.02892719954252243,-0.0036333820316940546,0.01555982418358326,0.9998247623443604,104.80042266845703,0.0,0.0,0.0
163024.624,-0.004203281830996275,-0.013830236159265041,0.003322885138913989,-0.0005656484281644225,-0.0031113119330257177,-0.0018491663504391909,1.0283840894699097,-0.1408006101846695,1.9287277460098267,0.009466324932873249,-0.07267104834318161,-0.06610245257616043,-0.004227523226290941,0.01597295142710209,0.9992174506187439,104.88243865966797,0.0,0.0,0.0
163028.536,-0.004707100801169872,-0.015095316804945469,0.002746820682659745,-0.005654162261635065,-0.010876837186515331,-0.0040981643833220005,1.0931990146636963,-0.09123484045267105,1.9006567001342773,0.18311667442321777,-0.2068903148174286,0.11418385058641434,-0.004454130306839943,0.016545748338103294,0.9989535212516785,104.88243865966797,0.0,0.0,0.0
163032.502,-0.004764868412166834,-0.01520558912307024,0.00270554656162858,-0.005899764131754637,-0.01117759384214878,-0.004156083334237337,1.0921297073364258,-0.0904397964477539,1.8989431858062744,-0.15577435493469238,0.04915577545762062,0.04802590236067772,-0.004887882620096207,0.01629929430782795,1.0002151727676392,104.88243865966797,0.0,0.0,0.0
163036.446,-0.004764868412166834,-0.01520558912307024,0.00270554656162858,-0.005899764131754637,-0.01117759384214878,-0.004156083334237337,1.0921297073364258,-0.0904397964477539,1.8989431858062744,-0.1350952386856079,-0.08673806488513947,-0.0020538170356303453,-0.004773317836225033,0.015567053109407425,1.0014933347702026,104.88243865966797,0.0,0.0,0.0
163040.398,-0.004764868412166834,-0.01520558912307024,0.00270554656162858,-0.005899764131754637,-0.01117759384214878,-0.004156083334237337,1.0921297073364258,-0.0904397964477539,1.8989431858062744,-0.10160288214683533,0.16232013702392578,0.009622929617762566,-0.004278361331671476,0.014750896021723747,1.0014927387237549,104.88243865966797,0.0,0.0,0.0
163044.4,-0.004764868412166834,-0.01520558912307024,0.00270554656162858,-0.005899764131754637,-0.01117759384214878,-0.004156083334237337,1.0921297073364258,-0.0904397964477539,1.8989431858062744,0.061276040971279144,0.007758907042443752,-0.02797706611454487,-0.003984269220381975,0.01567988470196724,1.0008611679077148,104.88243865966797,0.0,0.0,0.0
163048.307,-0.004968257620930672,-0.01591646298766136,0.0024298420175909996,-0.00868306402117014,-0.015411820262670517,-0.005068531259894371,1.1239793300628662,-0.06529522687196732,1.8818227052688599,-0.05422593653202057,-0.13240696489810944,0.0014020459493622184,-0.004650198854506016,0.016208287328481674,1.000382900238037,104.88243865966797,0.0,0.0,0.0
163052.28,-0.005056561436504126,-0.016072595492005348,0.0023796113673597574,-0.008978204801678658,-0.015814442187547684,-0.004976908676326275,1.1226335763931274,-0.06527135521173477,1.879753589630127,-0.31040215492248535,-0.07120654731988907,0.062810018658638,-0.005332214757800102,0.01747739687561989,0.9998836517333984,104.88243865966797,0.0,0.0,0.0
163056.223,-0.005056561436504126,-0.016072595492005348,0.0023796113673597574,-0.008978204801678658,-0.015814442187547684,-0.004976908676326275,1.1226335763931274,-0.06527135521173477,1.879753589630127,-0.03671281039714813,0.006242441013455391,-0.18635457754135132,-0.005976884625852108,0.018456950783729553,0.9992689490318298,104.88243865966797,0.0,0.0,0.0
163060.169,-0.005056561436504126,-0.016072595492005348,0.0023796113673597574,-0.008978204801678658,-0.015814442187547684,-0.004976908676326275,1.1226335763931274,-0.06527135521173477,1.879753589630127,0.17156542837619781,0.18583521246910095,0.06394077837467194,-0.006489461753517389,0.01818191446363926,0.9999879002571106,104.88243865966797,0.0,0.0,0.0
163064.162,-0.0051485700532794,-0.01623161882162094,0.002329766983166337,-0.009424060583114624,-0.015990180894732475,-0.004991272464394569,1.120349407196045,-0.06515087187290192,1.8772598505020142,-0.053257305175065994,0.25805336236953735,0.04443802312016487,-0.006250376347452402,0.016997553408145905,1.0002437829971313,104.88790893554688,0.0,0.0,0.0
163068.073,-0.0038487641140818596,-0.01558266393840313,0.0022121535148471594,-0.0014138895785436034,-0.010296971537172794,-0.005856644362211227,1.069968581199646,-0.13934582471847534,1.9138506650924683,0.0011297380551695824,-0.03341233730316162,-0.12374544888734818,-0.006262829061597586,0.01558835618197918,1.0003149509429932,104.88790893554688,0.0,0.0,0.0
163072.037,-0.0038647775072604418,-0.015686631202697754,0.0021537619177252054,-0.0017891359748318791,-0.010496433824300766,-0.00582108786329627,1.069077968597412,-0.14062277972698212,1.9120272397994995,0.1579107642173767,-0.14325007796287537,0.3659187853336334,-0.006407355424016714,0.015592599287629128,1.0003620386123657,104.88790893554688,0.0,0.0,0.0
163075.979,-0.0038647775072604418,-0.015686631202697754,0.0021537619177252054,-0.0017891359748318791,-0.010496433824300766,-0.00582108786329627,1.069077968597412,-0.14062277972698212,1.9120272397994995,0.012914609163999557,0.009457170031964779,-0.1549067199230194,-0.005465906113386154,0.015788080170750618,1.000830054283142,104.88790893554688,0.0,0.0,0.0
163079.944,-0.0038647775072604418,-0.015686631202697754,0.0021537619177252054,-0.0017891359748318791,-0.010496433824300766,-0.00582108786329627,1.069077968597412,-0.14062277972698212,1.9120272397994995,-0.025420842692255974,-0.06588172912597656,-0.19308187067508698,-0.0054598236456513405,0.014732209034264088,1.0003222227096558,104.88790893554688,0.0,0.0,0.0
163083.938,-0.0038842896465212107,-0.015793176367878914,0.0020958923269063234,-0.0021136521827429533,-0.010812557302415371,-0.005752254277467728,1.0687956809997559,-0.1398135870695114,1.9105967283248901,-0.09829027950763702,-0.09669534862041473,-0.18289948999881744,-0.00573270209133625,0.014781839214265347,1.0001987218856812,104.90431213378906,0.0,0.0,0.0
163087.847,-0.0038842896465212107,-0.015793176367878914,0.0020958923269063234,-0.0021136521827429533,-0.010812557302415371,-0.005752254277467728,1.0687956809997559,-0.1398135870695114,1.9105967283248901,0.07382495701313019,-0.34636372327804565,-0.0031876256689429283,-0.005139492452144623,0.01604439690709114,0.9996896386146545,104.90431213378906,0.0,0.0,0.0
163091.817,-0.003906857687979937,-0.015903064981102943,0.002038440899923444,-0.002400328405201435,-0.01116535160690546,-0.005737433675676584,1.0673855543136597,-0.13800159096717834,1.9074631929397583,0.23777680099010468,-0.10080571472644806,0.14968737959861755,-0.0038533350452780724,0.017130305990576744,0.9989050626754761,104.90431213378906,0.0,0.0,0.0
163095.753,-0.003906857687979937,-0.015903064981102943,0.002038440899923444,-0.002400328405201435,-0.01116535160690546,-0.005737433675676584,1.0673855543136597,-0.13800159096717834,1.9074631929397583,0.24046556651592255,0.03644891083240509,-0.14942722022533417,-0.0021678025368601084,0.01768895983695984,0.9991747736930847,104.90431213378906,0.0,0.0,0.0
163099.703,-0.003906857687979937,-0.015903064981102943,0.002038440899923444,-0.002400328405201435,-0.01116535160690546,-0.005737433675676584,1.0673855543136597,-0.13800159096717834,1.9074631929397583,0.07967686653137207,-0.1361483931541443,0.064273402094841,-0.002807062119245529,0.017921963706612587,1.0002108812332153,104.90431213378906,0.0,0.0,0.0
163103.706,-0.003906857687979937,-0.015903064981102943,0.002038440899923444,-0.002400328405201435,-0.01116535160690546,-0.005737433675676584,1.0673855543136597,-0.13800159096717834,1.9074631929397583,0.06390807032585144,-0.03240630775690079,-0.017456060275435448,-0.0038895937614142895,0.018554482609033585,1.0026401281356812,104.97539520263672,0.0,0.0,0.0
