timestamp,stateEstimate.x,stateEstimate.y,stateEstimate.z,stateEstimate.vx,stateEstimate.vy,stateEstimate.vz,stateEstimate.roll,stateEstimate.pitch,stateEstimate.yaw,gyro.x,gyro.y,gyro.z,acc.x,acc.y,acc.z,baro.asl,lighthouse.x,lighthouse.y,lighthouse.z
440968.626,-0.008856589905917645,0.0024011433124542236,-3.5922450479120016e-05,-0.004629986360669136,-0.007463985122740269,0.019951703026890755,0.9939959645271301,-0.11665666103363037,4.960912227630615,-0.13725689053535461,0.2652685344219208,0.18495546281337738,-0.005186139605939388,0.016137493774294853,1.0012943744659424,105.24333190917969,0.0,0.0,0.0
440972.62,-0.008856589905917645,0.0024011433124542236,-3.5922450479120016e-05,-0.004629986360669136,-0.007463985122740269,0.019951703026890755,0.9939959645271301,-0.11665666103363037,4.960912227630615,0.012023729272186756,-0.004379537422209978,0.34147322177886963,-0.006124422885477543,0.015806058421730995,1.0025954246520996,105.25426483154297,0.0,0.0,0.0
440976.529,-0.00890430249273777,0.0023258232977241278,0.00016421929467469454,-0.004913165234029293,-0.007599269971251488,0.020077168941497803,0.9922044277191162,-0.11893146485090256,4.9579548835754395,-0.14366497099399567,-0.2838839292526245,-0.03936873748898506,-0.007117769215255976,0.014703831635415554,1.0031497478485107,105.25426483154297,0.0,0.0,0.0
440980.507,-0.00890430249273777,0.0023258232977241278,0.00016421929467469454,-0.004913165234029293,-0.007599269971251488,0.020077168941497803,0.9922044277191162,-0.11893146485090256,4.9579548835754395,0.1371554583311081,-0.2738145887851715,-0.13559547066688538,-0.006387854926288128,0.014334450475871563,1.0028691291809082,105.25426483154297,0.0,0.0,0.0
440984.438,-0.00896625779569149,0.0018214837182313204,0.0011942085111513734,-0.0052081020548939705,-0.010334297083318233,0.02542419731616974,1.01054847240448,-0.11476112902164459,5.017605781555176,0.31179583072662354,-0.38926711678504944,-0.12557056546211243,-0.005093577783554792,0.015007027424871922,1.0023016929626465,105.25426483154297,0.0,0.0,0.0
440988.392,-0.00896625779569149,0.0018214837182313204,0.0011942085111513734,-0.0052081020548939705,-0.010334297083318233,0.02542419731616974,1.01054847240448,-0.11476112902164459,5.017605781555176,0.23055347800254822,-0.11402159929275513,-0.019110608845949173,-0.004156516399234533,0.016107430681586266,1.0013939142227173,105.25426483154297,0.0,0.0,0.0
440992.394,-0.00896625779569149,0.0018214837182313204,0.0011942085111513734,-0.0052081020548939705,-0.010334297083318233,0.02542419731616974,1.01054847240448,-0.11476112902164459,5.017605781555176,0.07230368256568909,-0.19019021093845367,0.17856009304523468,-0.002810577629134059,0.01695389114320278,1.0012047290802002,105.26520538330078,0.0,0.0,0.0
440996.301,-0.009019387885928154,0.0017171356594190001,0.0014493472408503294,-0.0054189241491258144,-0.010534408502280712,0.02560409903526306,1.0118738412857056,-0.11250165104866028,5.01239013671875,0.26477816700935364,-0.3427494466304779,0.01010871585458517,-0.0027194039430469275,0.016745172441005707,1.0015281438827515,105.26520538330078,0.0,0.0,0.0
441000.27,-0.009019387885928154,0.0017171356594190001,0.0014493472408503294,-0.0054189241491258144,-0.010534408502280712,0.02560409903526306,1.0118738412857056,-0.11250165104866028,5.01239013671875,0.19996891915798187,-0.06987517327070236,-0.06610891222953796,-0.00216105068102479,0.017060602083802223,1.0014604330062866,105.26520538330078,0.0,0.0,0.0
441004.207,-0.01023322157561779,9.738697553984821e-05,0.0014426631387323141,-0.011105919256806374,-0.019369961693882942,0.024713516235351562,1.0788923501968384,-0.058721333742141724,5.001249313354492,0.12249210476875305,-0.026412401348352432,0.18035338819026947,-0.002293296391144395,0.01751036010682583,1.0012589693069458,105.26520538330078,0.0,0.0,0.0
441008.171,-0.01023322157561779,9.738697553984821e-05,0.0014426631387323141,-0.011105919256806374,-0.019369961693882942,0.024713516235351562,1.0788923501968384,-0.058721333742141724,5.001249313354492,0.07621908187866211,-0.30254459381103516,0.03364988788962364,-0.001235086121596396,0.01681203953921795,1.0003854036331177,105.26520538330078,0.0,0.0,0.0
441012.168,-0.006278351880609989,0.0028315410017967224,0.002817448927089572,0.0037030118983238935,-0.004607097711414099,0.0320662297308445,0.9703738689422607,-0.18718042969703674,5.042760848999023,-0.12126176059246063,-0.09887099266052246,-0.11429303139448166,-0.0013416685396805406,0.015780702233314514,0.9997726678848267,105.29254913330078,0.0,0.0,0.0
441016.073,-0.006240553688257933,0.002785550896078348,0.0031385328620672226,0.0038560782559216022,-0.004590715281665325,0.032151058316230774,0.9700071811676025,-0.18561185896396637,5.038294792175293,-0.025557583197951317,-0.20298729836940765,-0.09295864403247833,-0.0021358593367040157,0.015400052070617676,1.0001049041748047,105.29254913330078,0.0,0.0,0.0
441020.043,-0.006240553688257933,0.002785550896078348,0.0031385328620672226,0.0038560782559216022,-0.004590715281665325,0.032151058316230774,0.9700071811676025,-0.18561185896396637,5.038294792175293,0.14130046963691711,-0.2910959720611572,-0.12249042093753815,-0.003192372154444456,0.015976525843143463,1.0004072189331055,105.29254913330078,0.0,0.0,0.0
441023.982,-0.008366330526769161,0.00124728970695287,0.003047104924917221,-0.003694458631798625,-0.012393846176564693,0.030519571155309677,1.0242784023284912,-0.11853134632110596,5.030918598175049,0.11799057573080063,-0.1560647040605545,-0.05727902799844742,-0.004097085911780596,0.015819471329450607,1.0013021230697632,105.29254913330078,0.0,0.0,0.0
441027.936,-0.008366330526769161,0.00124728970695287,0.003047104924917221,-0.003694458631798625,-0.012393846176564693,0.030519571155309677,1.0242784023284912,-0.11853134632110596,5.030918598175049,-0.24821531772613525,0.14075270295143127,0.19316916167736053,-0.004417212679982185,0.016441460698843002,1.001015543937683,105.29254913330078,0.0,0.0,0.0
441031.942,-0.0053665488958358765,0.003283051075413823,0.0036651846021413803,0.0051216608844697475,-0.003458007238805294,0.033467747271060944,0.9601832628250122,-0.19179898500442505,5.067090034484863,0.07734578847885132,-0.09331424534320831,0.03971901908516884,-0.00421166280284524,0.01688607782125473,1.00075101852417,105.30347442626953,0.0,0.0,0.0
441035.842,-0.005315729882568121,0.0032481662929058075,0.004000444430857897,0.005041725002229214,-0.0035188377369195223,0.033584658056497574,0.9587296843528748,-0.19134391844272614,5.062789440155029,0.18365688621997833,0.051943473517894745,-0.043079815804958344,-0.003218535566702485,0.017392825335264206,1.0011969804763794,105.30347442626953,0.0,0.0,0.0
441039.818,-0.005315729882568121,0.0032481662929058075,0.004000444430857897,0.005041725002229214,-0.0035188377369195223,0.033584658056497574,0.9587296843528748,-0.19134391844272614,5.062789440155029,-0.09230957925319672,-0.03685697540640831,0.04895893484354019,-0.0024646425154060125,0.01702127233147621,1.001186728477478,105.30347442626953,0.0,0.0,0.0
441043.758,-0.005265259649604559,0.0032131795305758715,0.004336896818131208,0.00505190622061491,-0.003478404600173235,0.03370632976293564,0.9586050510406494,-0.19096708297729492,5.057673931121826,-0.25024786591529846,-0.017162436619400978,-0.10452739894390106,-0.002465909579768777,0.015279747545719147,1.001572847366333,105.30347442626953,0.0,0.0,0.0
441047.703,-0.005265259649604559,0.0032131795305758715,0.004336896818131208,0.00505190622061491,-0.003478404600173235,0.03370632976293564,0.9586050510406494,-0.19096708297729492,5.057673931121826,0.14237698912620544,-0.08697666972875595,0.07952924072742462,-0.0034033937845379114,0.01365946140140295,1.0014972686767578,105.30347442626953,0.0,0.0,0.0
441051.708,-0.005265259649604559,0.0032131795305758715,0.004336896818131208,0.00505190622061491,-0.003478404600173235,0.03370632976293564,0.9586050510406494,-0.19096708297729492,5.057673931121826,0.31822556257247925,-0.07298021763563156,-0.17361316084861755,-0.0036598932929337025,0.014045490883290768,1.0009875297546387,105.30894470214844,0.0,0.0,0.0
441055.615,-0.005214482080191374,0.0031773012597113848,0.004674738273024559,0.005103148519992828,-0.003697136649861932,0.03386242315173149,0.9578098654747009,-0.19031836092472076,5.052266597747803,-0.1683422327041626,-0.01571972295641899,-0.09933675080537796,-0.003963409457355738,0.016003882512450218,1.000266671180725,105.30894470214844,0.0,0.0,0.0
441059.588,-0.006940315943211317,0.0027077209670096636,0.002081805607303977,-0.004352213814854622,-0.006062720902264118,0.014448277652263641,0.9714734554290771,-0.1194455549120903,5.034106731414795,-0.0951155573129654,-0.35063838958740234,-0.00368984742090106,-0.0048883226700127125,0.01769084855914116,1.000036597251892,105.30894470214844,0.0,0.0,0.0
441063.526,-0.006984839681535959,0.002646594773977995,0.0022265147417783737,-0.004553092177957296,-0.006161874625831842,0.014494046568870544,0.9700521230697632,-0.11786137521266937,5.02822208404541,0.1333412379026413,-0.36534184217453003,-0.08528344333171844,-0.005174906924366951,0.016421860083937645,1.0001957416534424,105.30894470214844,0.0,0.0,0.0
441067.483,-0.006984839681535959,0.002646594773977995,0.0022265147417783737,-0.004553092177957296,-0.006161874625831842,0.014494046568870544,0.9700521230697632,-0.11786137521266937,5.02822208404541,-0.06898936629295349,0.051933880895376205,-0.27702099084854126,-0.005069094710052013,0.015424869023263454,0.9995256066322327,105.30894470214844,0.0,0.0,0.0
441071.487,-0.006984839681535959,0.002646594773977995,0.0022265147417783737,-0.004553092177957296,-0.006161874625831842,0.014494046568870544,0.9700521230697632,-0.11786137521266937,5.02822208404541,-0.07971162348985672,-0.045555464923381805,-0.14130455255508423,-0.0040910253301262856,0.01644010655581951,0.9985862374305725,105.27066802978516,0.0,0.0,0.0
441075.395,-0.007031778804957867,0.0025844203773885965,0.0023713724222034216,-0.004835332743823528,-0.0062723360024392605,0.014477967284619808,0.9692072868347168,-0.11640273034572601,5.021363735198975,0.1219131126999855,-0.24187509715557098,0.1805364489555359,-0.0033682023640722036,0.01739337109029293,0.9982777237892151,105.27066802978516,0.0,0.0,0.0
441079.361,-0.007031778804957867,0.0025844203773885965,0.0023713724222034216,-0.004835332743823528,-0.0062723360024392605,0.014477967284619808,0.9692072868347168,-0.11640273034572601,5.021363735198975,0.04487896338105202,-0.130502387881279,0.038003940135240555,-0.0024613277055323124,0.016369320452213287,0.9983431100845337,105.27066802978516,0.0,0.0,0.0
441083.293,-0.007080695126205683,0.002521633869037032,0.002515409141778946,-0.004948474001139402,-0.006284283008426428,0.014329861849546432,0.9687302708625793,-0.11465142667293549,5.017001628875732,0.09599589556455612,-0.18399560451507568,-0.07514657825231552,-0.0017219055444002151,0.015013818629086018,0.9981873035430908,105.27066802978516,0.0,0.0,0.0
441087.25,-0.007080695126205683,0.002521633869037032,0.002515409141778946,-0.004948474001139402,-0.006284283008426428,0.014329861849546432,0.9687302708625793,-0.11465142667293549,5.017001628875732,-0.06973988562822342,-0.3661075830459595,0.03216249868273735,-0.002363073406741023,0.015449006110429764,0.9990363717079163,105.27066802978516,0.0,0.0,0.0
441091.255,-0.007080695126205683,0.002521633869037032,0.002515409141778946,-0.004948474001139402,-0.006284283008426428,0.014329861849546432,0.9687302708625793,-0.11465142667293549,5.017001628875732,0.20528943836688995,0.1523113250732422,-0.08985404670238495,-0.0034937504678964615,0.016173316165804863,1.0003288984298706,105.24879455566406,0.0,0.0,0.0
441095.155,-0.008344868198037148,0.0018391194753348827,0.00021677266340702772,-0.013516477309167385,-0.010109422728419304,-0.0033271233551204205,0.9916759729385376,-0.04901359975337982,4.989446640014648,-0.21624180674552917,-0.08312838524580002,0.21501187980175018,-0.004200387746095657,0.016377508640289307,1.002325177192688,105.24879455566406,0.0,0.0,0.0
441099.133,-0.008344868198037148,0.0018391194753348827,0.00021677266340702772,-0.013516477309167385,-0.010109422728419304,-0.0033271233551204205,0.9916759729385376,-0.04901359975337982,4.989446640014648,-0.10114190727472305,0.08938807249069214,0.22386978566646576,-0.004125325009226799,0.016020771116018295,1.0031379461288452,105.24879455566406,0.0,0.0,0.0
441103.07,-0.008481532335281372,0.001737339305691421,0.00018462640582583845,-0.01381714828312397,-0.010245469398796558,-0.003101587761193514,0.9899569153785706,-0.04937444254755974,4.985901832580566,0.0638955682516098,0.22111186385154724,-0.013283664360642433,-0.0042526330798864365,0.01693734899163246,1.0028140544891357,105.24879455566406,0.0,0.0,0.0
441107.017,-0.008481532335281372,0.001737339305691421,0.00018462640582583845,-0.01381714828312397,-0.010245469398796558,-0.003101587761193514,0.9899569153785706,-0.04937444254755974,4.985901832580566,0.23868873715400696,-0.0033509356435388327,-0.023751428350806236,-0.004594700876623392,0.01734940893948078,1.0023638010025024,105.24879455566406,0.0,0.0,0.0
441111.031,-0.008481532335281372,0.001737339305691421,0.00018462640582583845,-0.01381714828312397,-0.010245469398796558,-0.003101587761193514,0.9899569153785706,-0.04937444254755974,4.985901832580566,0.02996671013534069,-0.0977909117937088,-0.08369703590869904,-0.00394480163231492,0.017341000959277153,1.002536654472351,105.21052551269531,0.0,0.0,0.0
441114.932,-0.008621401153504848,0.0016346421325579286,0.0001549603184685111,-0.01415744423866272,-0.01029278989881277,-0.002831069752573967,0.9901336431503296,-0.05023547634482384,4.980647563934326,0.19147779047489166,-0.24577976763248444,0.1486932784318924,-0.004504247568547726,0.016651436686515808,1.0025110244750977,105.21052551269531,0.0,0.0,0.0
441118.895,-0.008621401153504848,0.0016346421325579286,0.0001549603184685111,-0.01415744423866272,-0.01029278989881277,-0.002831069752573967,0.9901336431503296,-0.05023547634482384,4.980647563934326,0.1475941389799118,-0.11232635378837585,-0.13405150175094604,-0.005156497936695814,0.016048235818743706,1.0030558109283447,105.21052551269531,0.0,0.0,0.0
441122.833,-0.009215209633111954,0.0011283254716545343,0.0011890190653502941,-0.01753494143486023,-0.01292802207171917,0.004398896358907223,1.0057743787765503,-0.02506674826145172,5.043027877807617,-0.023953091353178024,0.10064858943223953,-0.17534537613391876,-0.00556206377223134,0.016816800460219383,1.0029451847076416,105.21052551269531,0.0,0.0,0.0
441126.788,-0.009215209633111954,0.0011283254716545343,0.0011890190653502941,-0.01753494143486023,-0.01292802207171917,0.004398896358907223,1.0057743787765503,-0.02506674826145172,5.043027877807617,0.033257585018873215,-0.10302029550075531,0.02716836705803871,-0.005777755752205849,0.01676039770245552,1.001947283744812,105.21052551269531,0.0,0.0,0.0
441130.801,-0.009215209633111954,0.0011283254716545343,0.0011890190653502941,-0.01753494143486023,-0.01292802207171917,0.004398896358907223,1.0057743787765503,-0.02506674826145172,5.043027877807617,-0.05028725042939186,-0.15345308184623718,-0.13217318058013916,-0.004923481959849596,0.017731619998812675,1.0021491050720215,105.2269287109375,0.0,0.0,0.0
441134.699,-0.009393029846251011,0.0009984623175114393,0.00123425736092031,-0.01803022250533104,-0.013042926788330078,0.0046493555419147015,1.0049076080322266,-0.0248069129884243,5.037184715270996,0.10640204697847366,-0.02131720259785652,-0.09749499708414078,-0.00410754419863224,0.017303479835391045,1.0020276308059692,105.2269287109375,0.0,0.0,0.0
441138.674,-0.009393029846251011,0.0009984623175114393,0.00123425736092031,-0.01803022250533104,-0.013042926788330078,0.0046493555419147015,1.0049076080322266,-0.0248069129884243,5.037184715270996,0.034022290259599686,0.1316561996936798,-0.0850517749786377,-0.0028449378442019224,0.01660715602338314,1.0007777214050293,105.2269287109375,0.0,0.0,0.0
441142.612,-0.00957498885691166,0.0008677075384184718,0.001281633274629712,-0.018362736329436302,-0.0131063312292099,0.00482642836868763,1.0043213367462158,-0.02482009306550026,5.0311479568481445,-0.006754773203283548,-0.2222849428653717,-0.11855275928974152,-0.002848939038813114,0.01711335778236389,0.9997504353523254,105.2269287109375,0.0,0.0,0.0
441146.568,-0.00957498885691166,0.0008677075384184718,0.001281633274629712,-0.018362736329436302,-0.0131063312292099,0.00482642836868763,1.0043213367462158,-0.02482009306550026,5.0311479568481445,0.12905575335025787,-0.2633295953273773,0.16821904480457306,-0.00414718221873045,0.018732620403170586,1.0002624988555908,105.2269287109375,0.0,0.0,0.0
441150.563,-0.005310890730470419,0.004958432167768478,0.0022190669551491737,0.013438615947961807,0.012107137590646744,0.010591523721814156,0.8448450565338135,-0.26272353529930115,5.085201740264893,0.10400800406932831,-0.08401771634817123,0.2872287631034851,-0.0033660600893199444,0.018572140485048294,1.0003324747085571,105.1995849609375,0.0,0.0,0.0
441154.464,-0.005176096688956022,0.0050811199471354485,0.0023251110687851906,0.013521273620426655,0.012429418042302132,0.010617624036967754,0.8444998860359192,-0.2604351341724396,5.080516338348389,0.17142362892627716,0.10927554965019226,-0.14394059777259827,-0.00282624876126647,0.018360350281000137,1.000707745552063,105.1995849609375,0.0,0.0,0.0
441158.454,-0.005176096688956022,0.0050811199471354485,0.0023251110687851906,0.013521273620426655,0.012429418042302132,0.010617624036967754,0.8444998860359192,-0.2604351341724396,5.080516338348389,0.03533066809177399,0.1678609400987625,0.11016799509525299,-0.0030693106818944216,0.017520515248179436,1.0016140937805176,105.1995849609375,0.0,0.0,0.0
441162.379,-0.007487352006137371,0.002527758711948991,0.0016971242148429155,-0.0022870637476444244,-0.003364111064001918,0.006622494664043188,0.9485431909561157,-0.14135870337486267,5.003279209136963,-0.08065226674079895,0.2384045422077179,-0.08112255483865738,-0.0036827640142291784,0.01569342240691185,1.001524567604065,105.1995849609375,0.0,0.0,0.0
441166.337,-0.007487352006137371,0.002527758711948991,0.0016971242148429155,-0.0022870637476444244,-0.003364111064001918,0.006622494664043188,0.9485431909561157,-0.14135870337486267,5.003279209136963,0.3767554461956024,-0.05949906259775162,0.1308133602142334,-0.0038391880225390196,0.01408262737095356,1.0018784999847412,105.1995849609375,0.0,0.0,0.0
441170.334,-0.007487352006137371,0.002527758711948991,0.0016971242148429155,-0.0022870637476444244,-0.003364111064001918,0.006622494664043188,0.9485431909561157,-0.14135870337486267,5.003279209136963,-0.09495030343532562,-0.25611063838005066,0.11607957631349564,-0.003926459699869156,0.014352620579302311,1.0023947954177856,105.21052551269531,0.0,0.0,0.0
441174.24,-0.007510776165872812,0.0024932476226240396,0.001764295855537057,-0.002398064360022545,-0.0035378062166273594,0.006812289357185364,0.9486452341079712,-0.14162752032279968,4.998864650726318,0.12229043990373611,-0.1506754457950592,-0.1275389939546585,-0.003956844564527273,0.015609820373356342,1.002439022064209,105.21052551269531,0.0,0.0,0.0
441178.219,-0.007510776165872812,0.0024932476226240396,0.001764295855537057,-0.002398064360022545,-0.0035378062166273594,0.006812289357185364,0.9486452341079712,-0.14162752032279968,4.998864650726318,0.4520794451236725,-0.11520786583423615,-0.1888585090637207,-0.003583813551813364,0.016450857743620872,1.0029504299163818,105.21052551269531,0.0,0.0,0.0
441182.158,-0.007535376586019993,0.0024573274422436953,0.0018337531946599483,-0.002522378461435437,-0.0036458922550082207,0.007079595234245062,0.9495407342910767,-0.13991810381412506,4.992918014526367,0.17360535264015198,-0.20510752499103546,0.0010348525829613209,-0.004077497869729996,0.015868481248617172,1.0025062561035156,105.21052551269531,0.0,0.0,0.0
441186.105,-0.007535376586019993,0.0024573274422436953,0.0018337531946599483,-0.002522378461435437,-0.0036458922550082207,0.007079595234245062,0.9495407342910767,-0.13991810381412506,4.992918014526367,0.1709112524986267,0.002504629548639059,0.0920935869216919,-0.0043314676731824875,0.017092710360884666,1.0012444257736206,105.21052551269531,0.0,0.0,0.0
441190.106,-0.007535376586019993,0.0024573274422436953,0.0018337531946599483,-0.002522378461435437,-0.0036458922550082207,0.007079595234245062,0.9495407342910767,-0.13991810381412506,4.992918014526367,0.030252136290073395,-0.06323948502540588,0.07879648357629776,-0.004235526081174612,0.017930882051587105,1.0005385875701904,105.25973510742188,0.0,0.0,0.0
441194.019,-0.007561460603028536,0.0024208496324718,0.0019054791191592813,-0.00269478396512568,-0.003649326041340828,0.007266027387231588,0.950244665145874,-0.1388501226902008,4.988300800323486,0.1372964233160019,0.009410089813172817,0.1939021348953247,-0.004131137393414974,0.01684269681572914,1.0004254579544067,105.25973510742188,0.0,0.0,0.0
441197.982,-0.007561460603028536,0.0024208496324718,0.0019054791191592813,-0.00269478396512568,-0.003649326041340828,0.007266027387231588,0.950244665145874,-0.1388501226902008,4.988300800323486,0.2360265702009201,-0.30877625942230225,0.04845010116696358,-0.0035398583859205246,0.016487596556544304,1.0014582872390747,105.25973510742188,0.0,0.0,0.0
441201.925,-0.007589162327349186,0.0023844751995056868,0.0019785959739238024,-0.002845871727913618,-0.003625178011134267,0.007357751950621605,0.9506928324699402,-0.13758128881454468,4.98443078994751,0.05413500592112541,-0.23912104964256287,-0.023812295868992805,-0.0018304050900042057,0.016516976058483124,1.0018318891525269,105.25973510742188,0.0,0.0,0.0
441205.884,-0.007589162327349186,0.0023844751995056868,0.0019785959739238024,-0.002845871727913618,-0.003625178011134267,0.007357751950621605,0.9506928324699402,-0.13758128881454468,4.98443078994751,-0.1367911994457245,0.0347176231443882,0.16100409626960754,-0.0013932103756815195,0.01629158854484558,1.0014903545379639,105.25973510742188,0.0,0.0,0.0
441209.885,-0.007589162327349186,0.0023844751995056868,0.0019785959739238024,-0.002845871727913618,-0.003625178011134267,0.007357751950621605,0.9506928324699402,-0.13758128881454468,4.98443078994751,0.01164331380277872,0.2581492066383362,-0.0991274043917656,-0.0011833844473585486,0.015758207067847252,1.0007606744766235,105.24879455566406,0.0,0.0,0.0
441213.781,-0.007617234252393246,0.0023480947129428387,0.002052995376288891,-0.0027688732370734215,-0.0036505756434053183,0.00752256391569972,0.9496735334396362,-0.1369163990020752,4.979881763458252,-0.05166063830256462,-0.007331807166337967,-0.05686479061841965,-0.0016199970850721002,0.016375750303268433,1.0003612041473389,105.24879455566406,0.0,0.0,0.0
441217.763,-0.007617234252393246,0.0023480947129428387,0.002052995376288891,-0.0027688732370734215,-0.0036505756434053183,0.00752256391569972,0.9496735334396362,-0.1369163990020752,4.979881763458252,0.10592203587293625,-0.37474533915519714,-0.052346523851156235,-0.002935405122116208,0.017017705366015434,1.001279354095459,105.24879455566406,0.0,0.0,0.0
441221.694,-0.00968797504901886,0.0004624199355021119,0.0015788411255925894,-0.0161085557192564,-0.014932269230484962,0.004869387485086918,1.0235010385513306,-0.033205486834049225,4.907804012298584,0.20916767418384552,-0.06495106220245361,-0.017982792109251022,-0.004609896335750818,0.017613206058740616,1.0018324851989746,105.24879455566406,0.0,0.0,0.0
441225.648,-0.00968797504901886,0.0004624199355021119,0.0015788411255925894,-0.0161085557192564,-0.014932269230484962,0.004869387485086918,1.0235010385513306,-0.033205486834049225,4.907804012298584,0.26308000087738037,0.1491033285856247,0.10006164014339447,-0.004078437574207783,0.01741623692214489,1.001267433166504,105.24879455566406,0.0,0.0,0.0
441229.653,-0.00968797504901886,0.0004624199355021119,0.0015788411255925894,-0.0161085557192564,-0.014932269230484962,0.004869387485086918,1.0235010385513306,-0.033205486834049225,4.907804012298584,0.019183438271284103,0.26217979192733765,-0.09496525675058365,-0.0031493131536990404,0.01733294501900673,1.0006598234176636,105.30347442626953,0.0,0.0,0.0
441233.549,-0.009850750677287579,0.0003127495292574167,0.0016283057630062103,-0.016447778791189194,-0.015000320971012115,0.005024196580052376,1.024701476097107,-0.033621132373809814,4.903055191040039,-0.09716223925352097,0.07495484501123428,0.08709884434938431,-0.0038622855208814144,0.017207996919751167,1.0008810758590698,105.30347442626953,0.0,0.0,0.0
441237.532,-0.009850750677287579,0.0003127495292574167,0.0016283057630062103,-0.016447778791189194,-0.015000320971012115,0.005024196580052376,1.024701476097107,-0.033621132373809814,4.903055191040039,-0.10889929533004761,-0.13883669674396515,0.15131908655166626,-0.004646465182304382,0.01652495563030243,1.0015623569488525,105.30347442626953,0.0,0.0,0.0
441241.467,-0.0100168501958251,0.00016216645599342883,0.0016791395610198379,-0.01677338406443596,-0.015114772133529186,0.005143206566572189,1.0228800773620605,-0.034165121614933014,4.898848533630371,0.03153713047504425,0.18161681294441223,0.0183002557605505,-0.004927477799355984,0.016138726845383644,1.001011848449707,105.30347442626953,0.0,0.0,0.0
441245.417,-0.0100168501958251,0.00016216645599342883,0.0016791395610198379,-0.01677338406443596,-0.015114772133529186,0.005143206566572189,1.0228800773620605,-0.034165121614933014,4.898848533630371,0.2330450862646103,-0.12287823110818863,0.023749908432364464,-0.004779227543622255,0.0176586601883173,1.0000907182693481,105.30347442626953,0.0,0.0,0.0
441249.421,-0.0100168501958251,0.00016216645599342883,0.0016791395610198379,-0.01677338406443596,-0.015114772133529186,0.005143206566572189,1.0228800773620605,-0.034165121614933014,4.898848533630371,-0.4258536398410797,-0.17288710176944733,0.10368942469358444,-0.004542097449302673,0.018351104110479355,0.9996277093887329,105.34175109863281,0.0,0.0,0.0
441253.319,-0.010186613537371159,1.0468807886354625e-05,0.0017308781389147043,-0.017180638387799263,-0.015223199501633644,0.005205126479268074,1.0223408937454224,-0.03403685241937637,4.8943328857421875,0.15735363960266113,-0.1624809354543686,0.04928521066904068,-0.0044611115008592606,0.016867952421307564,0.9992779493331909,105.34175109863281,0.0,0.0,0.0
441257.3,-0.01000950951129198,-0.00024187538656406105,0.0019959064666181803,-0.016139797866344452,-0.0166466161608696,0.0065698581747710705,1.0329053401947021,-0.039212051779031754,4.9826459884643555,0.2636345624923706,0.003950394690036774,-0.42495423555374146,-0.004603988956660032,0.015017069876194,1.0000724792480469,105.34175109863281,0.0,0.0,0.0
441261.237,-0.01017272099852562,-0.00040920748142525554,0.002061485080048442,-0.01650402694940567,-0.016818244010210037,0.006546522490680218,1.0322853326797485,-0.03818797692656517,4.976748466491699,0.08561202883720398,0.07295309752225876,-0.1536245495080948,-0.005128946155309677,0.014527725987136364,1.001114845275879,105.34175109863281,0.0,0.0,0.0
441265.193,-0.01017272099852562,-0.00040920748142525554,0.002061485080048442,-0.01650402694940567,-0.016818244010210037,0.006546522490680218,1.0322853326797485,-0.03818797692656517,4.976748466491699,-0.13488078117370605,0.051004569977521896,0.2869759202003479,-0.004903072956949472,0.014569616876542568,1.0020848512649536,105.34175109863281,0.0,0.0,0.0
441269.199,-0.006035706028342247,0.0035474698524922132,0.003941808361560106,0.011438599787652493,0.007676730863749981,0.01544785127043724,0.8587976694107056,-0.2695836126804352,5.024848461151123,0.2565063536167145,-0.17051102221012115,-0.0875195860862732,-0.0036054053343832493,0.015098240226507187,1.001481533050537,105.31988525390625,0.0,0.0,0.0
441273.093,-0.007298598065972328,0.002974635688588023,0.0007356866262853146,0.0034833974204957485,0.003434227081015706,-0.0017494655912742019,0.887871503829956,-0.2062920331954956,4.997307777404785,0.28435614705085754,-0.24834373593330383,0.01270219311118126,-0.003071672050282359,0.01556149311363697,1.0016679763793945,105.31988525390625,0.0,0.0,0.0
441277.073,-0.007298598065972328,0.002974635688588023,0.0007356866262853146,0.0034833974204957485,0.003434227081015706,-0.0017494655912742019,0.887871503829956,-0.2062920331954956,4.997307777404785,-0.12907938659191132,-0.0034369442146271467,-0.0435035340487957,-0.0034843143075704575,0.015916408970952034,1.0018044710159302,105.31988525390625,0.0,0.0,0.0
441281.008,-0.0072636231780052185,0.003009019885212183,0.0007190536125563085,0.0035118458326905966,0.0034422811586409807,-0.0015767770819365978,0.8885206580162048,-0.2045772224664688,4.99202299118042,0.002364587737247348,0.24530000984668732,-0.15343868732452393,-0.0033607149962335825,0.01634545810520649,1.0007123947143555,105.31988525390625,0.0,0.0,0.0
441284.961,-0.0072636231780052185,0.003009019885212183,0.0007190536125563085,0.0035118458326905966,0.0034422811586409807,-0.0015767770819365978,0.8885206580162048,-0.2045772224664688,4.99202299118042,-0.047406863421201706,-0.11051957309246063,-0.05450242757797241,-0.0030941166914999485,0.017030803486704826,0.9999772310256958,105.31988525390625,0.0,0.0,0.0
441288.966,-0.004785146564245224,0.0047137136571109295,0.0012568230740725994,0.01510995626449585,0.013983997516334057,0.0007403403287753463,0.8122855424880981,-0.30557700991630554,5.038583755493164,0.10841283202171326,-0.21201318502426147,0.19517646729946136,-0.003516505239531398,0.016843575984239578,1.0001471042633057,105.26520538330078,0.0,0.0,0.0
441292.871,-0.004633147269487381,0.004854881204664707,0.001264466904103756,0.015291189774870872,0.014248169958591461,0.0007887216634117067,0.8114458918571472,-0.3056413233280182,5.032804012298584,0.03838638588786125,-0.07913852483034134,0.18312393128871918,-0.004216725006699562,0.016056444495916367,1.0014725923538208,105.26520538330078,0.0,0.0,0.0
441296.852,-0.004633147269487381,0.004854881204664707,0.001264466904103756,0.015291189774870872,0.014248169958591461,0.0007887216634117067,0.8114458918571472,-0.3056413233280182,5.032804012298584,0.0127287982031703,0.16413237154483795,-0.12325023859739304,-0.0038818693719804287,0.016097813844680786,1.0012465715408325,105.26520538330078,0.0,0.0,0.0
441300.775,-0.00447964807972312,0.0049984208308160305,0.0012729598674923182,0.015409918501973152,0.01445839460939169,0.0009101869072765112,0.8110489249229431,-0.3049186170101166,5.028642654418945,-0.07109478116035461,0.12221544981002808,0.06633331626653671,-0.0029442235827445984,0.01614907942712307,1.001110315322876,105.26520538330078,0.0,0.0,0.0
441304.738,-0.00447964807972312,0.0049984208308160305,0.0012729598674923182,0.015409918501973152,0.01445839460939169,0.0009101869072765112,0.8110489249229431,-0.3049186170101166,5.028642654418945,0.20651677250862122,-0.0852082148194313,0.05907028913497925,-0.0029833621811121702,0.01617123745381832,1.0015325546264648,105.26520538330078,0.0,0.0,0.0
441308.729,-0.003136682091280818,0.0056819189339876175,0.0017505643190816045,0.02173086628317833,0.018887382000684738,0.0033520653378218412,0.7791686654090881,-0.3614467680454254,5.068542957305908,0.04477200284600258,-0.02532767318189144,0.11757611483335495,-0.00400909036397934,0.014813813380897045,1.0013056993484497,105.24879455566406,0.0,0.0,0.0
441312.634,-0.004142924677580595,0.006406878586858511,0.003865801263600588,0.016734590753912926,0.021830860525369644,0.01493680290877819,0.7550991177558899,-0.31786417961120605,5.121860504150391,0.007518154568970203,-0.026806961745023727,0.1470910608768463,-0.0041864896193146706,0.014894864521920681,1.001462459564209,105.24879455566406,0.0,0.0,0.0
441316.61,-0.004142924677580595,0.006406878586858511,0.003865801263600588,0.016734590753912926,0.021830860525369644,0.01493680290877819,0.7550991177558899,-0.31786417961120605,5.121860504150391,0.30638155341148376,-0.43686026334762573,-0.03345299884676933,-0.00447068503126502,0.016188090667128563,1.0016990900039673,105.24879455566406,0.0,0.0,0.0
441320.552,-0.00397503562271595,0.006626262329518795,0.004015962593257427,0.016845060512423515,0.02204461582005024,0.015095725655555725,0.75542813539505,-0.3159949779510498,5.117600440979004,0.20287807285785675,-0.08174373209476471,-0.1606793850660324,-0.005166735965758562,0.017237287014722824,1.0022188425064087,105.24879455566406,0.0,0.0,0.0
441324.503,-0.00397503562271595,0.006626262329518795,0.004015962593257427,0.016845060512423515,0.02204461582005024,0.015095725655555725,0.75542813539505,-0.3159949779510498,5.117600440979004,0.14167742431163788,0.04323699697852135,0.06095688417553902,-0.005000706296414137,0.01791451871395111,1.0018271207809448,105.24879455566406,0.0,0.0,0.0
441328.498,-0.00397503562271595,0.006626262329518795,0.004015962593257427,0.016845060512423515,0.02204461582005024,0.015095725655555725,0.75542813539505,-0.3159949779510498,5.117600440979004,0.06760513037443161,-0.03111914172768593,-0.14819641411304474,-0.0038023630622774363,0.017863010987639427,0.9997509717941284,105.2214584350586,0.0,0.0,0.0
441332.405,-0.004561456851661205,0.006575847510248423,0.0016212103655561805,0.016232749447226524,0.02149488776922226,0.001449651550501585,0.7627410888671875,-0.3093290328979492,5.1296067237854,0.07599090039730072,-0.2005101889371872,-0.11248762905597687,-0.0037349164485931396,0.017448294907808304,0.9991381168365479,105.2214584350586,0.0,0.0,0.0
441336.387,-0.004561456851661205,0.006575847510248423,0.0016212103655561805,0.016232749447226524,0.02149488776922226,0.001449651550501585,0.7627410888671875,-0.3093290328979492,5.1296067237854,-0.2791838049888611,-0.07873275130987167,0.0415286049246788,-0.004542848560959101,0.015995154157280922,1.0004619359970093,105.2214584350586,0.0,0.0,0.0
441340.331,-0.004398616962134838,0.006792644504457712,0.0016356208361685276,0.01633717492222786,0.021863063797354698,0.0014326160307973623,0.7613422870635986,-0.30777332186698914,5.123691082000732,-0.2671410143375397,0.0021727727726101875,0.03136419877409935,-0.0058897873386740685,0.015404718928039074,1.0014609098434448,105.2214584350586,0.0,0.0,0.0
441344.275,-0.004398616962134838,0.006792644504457712,0.0016356208361685276,0.01633717492222786,0.021863063797354698,0.0014326160307973623,0.7613422870635986,-0.30777332186698914,5.123691082000732,0.098006471991539,0.030104978010058403,0.1541721671819687,-0.0062079350464046,0.015166292898356915,1.00147545337677,105.2214584350586,0.0,0.0,0.0
441348.274,-0.004398616962134838,0.006792644504457712,0.0016356208361685276,0.01633717492222786,0.021863063797354698,0.0014326160307973623,0.7613422870635986,-0.30777332186698914,5.123691082000732,0.12218689173460007,0.22972750663757324,0.06577305495738983,-0.00556400278583169,0.015747135505080223,1.0010592937469482,105.1995849609375,0.0,0.0,0.0
441352.182,-0.004976929165422916,0.0067204441875219345,0.0032467665150761604,0.013388480059802532,0.020138802006840706,0.011578214354813099,0.7758175134658813,-0.2797655761241913,5.16490364074707,0.06963548809289932,0.0685686320066452,-0.18580362200737,-0.004417477175593376,0.015314923599362373,1.0010896921157837,105.1995849609375,0.0,0.0,0.0
441356.153,-0.004976929165422916,0.0067204441875219345,0.0032467665150761604,0.013388480059802532,0.020138802006840706,0.011578214354813099,0.7758175134658813,-0.2797655761241913,5.16490364074707,-0.16211268305778503,0.1151624545454979,-0.036191463470458984,-0.003490789793431759,0.0158095546066761,1.001097321510315,105.1995849609375,0.0,0.0,0.0
441360.099,-0.007838459685444832,0.004087623208761215,0.002002623165026307,0.004717313684523106,0.005256467964500189,0.00487239845097065,0.8960794806480408,-0.18964329361915588,5.103321075439453,-0.0880187600851059,-0.055107634514570236,0.21082736551761627,-0.00408041849732399,0.0156953576952219,1.0010744333267212,105.1995849609375,0.0,0.0,0.0
441364.042,-0.007838459685444832,0.004087623208761215,0.002002623165026307,0.004717313684523106,0.005256467964500189,0.00487239845097065,0.8960794806480408,-0.18964329361915588,5.103321075439453,0.0425494946539402,-0.034670472145080566,-0.13507673144340515,-0.004449657164514065,0.016612112522125244,1.002466082572937,105.1995849609375,0.0,0.0,0.0
441368.047,-0.005342601332813501,0.005423636641353369,0.0027669393457472324,0.012091431766748428,0.01227371022105217,0.009176226332783699,0.8410571217536926,-0.26305297017097473,5.134016036987305,0.1732562631368637,0.1842358410358429,0.168015256524086,-0.004484181292355061,0.017073998227715492,1.002906322479248,105.21052551269531,0.0,0.0,0.0
441371.947,-0.0052215843461453915,0.005547173321247101,0.0028597027994692326,0.01211300678551197,0.012432649731636047,0.009376736357808113,0.8401235342025757,-0.2627289891242981,5.129278182983398,-0.053031548857688904,0.237492173910141,0.14821912348270416,-0.004869141615927219,0.01662595383822918,1.0023980140686035,105.21052551269531,0.0,0.0,0.0
441375.927,-0.007392298895865679,0.0037875305861234665,0.002117230324074626,0.005299434997141361,0.003101332113146782,0.005457733757793903,0.9169435501098633,-0.19236133992671967,5.0665411949157715,-0.12871989607810974,0.11924756318330765,-0.06636320054531097,-0.004586896859109402,0.017090778797864914,1.0015403032302856,105.21052551269531,0.0,0.0,0.0
441379.861,-0.00733998604118824,0.003818897996097803,0.0021729804575443268,0.005163402762264013,0.003171788528561592,0.0056926351971924305,0.915869951248169,-0.19409531354904175,5.062422752380371,-0.06361868232488632,-0.017080286517739296,-0.08266904950141907,-0.004047839902341366,0.016380425542593002,1.0015486478805542,105.21052551269531,0.0,0.0,0.0
441383.813,-0.00733998604118824,0.003818897996097803,0.0021729804575443268,0.005163402762264013,0.003171788528561592,0.0056926351971924305,0.915869951248169,-0.19409531354904175,5.062422752380371,0.16934189200401306,-0.1140541285276413,0.08475598692893982,-0.004091429989784956,0.015336335636675358,1.0017343759536743,105.21052551269531,0.0,0.0,0.0
441387.819,-0.005162258632481098,0.004696072079241276,0.002626483328640461,0.01259978674352169,0.008031382225453854,0.008289050310850143,0.8779808282852173,-0.26654672622680664,5.0942864418029785,-0.05694441497325897,-0.0025190177839249372,-0.08246497809886932,-0.003991495817899704,0.014915754087269306,1.0027204751968384,105.14490509033203,0.0,0.0,0.0
441391.717,-0.0050360048189759254,0.004776625894010067,0.0027102988678961992,0.012651609256863594,0.008078420534729958,0.008474396541714668,0.8775136470794678,-0.26572927832603455,5.089033126831055,-0.14504460990428925,0.04050609469413757,0.14882592856884003,-0.0038623306900262833,0.01503711100667715,1.0033460855484009,105.14490509033203,0.0,0.0,0.0
441395.693,-0.0050360048189759254,0.004776625894010067,0.0027102988678961992,0.012651609256863594,0.008078420534729958,0.008474396541714668,0.8775136470794678,-0.26572927832603455,5.089033126831055,0.2560146152973175,-0.3695610463619232,0.06786775588989258,-0.003336393740028143,0.01546039991080761,1.0029634237289429,105.14490509033203,0.0,0.0,0.0
441399.632,-0.004909011535346508,0.004857340361922979,0.002796619199216366,0.012747710570693016,0.008063510060310364,0.008790001273155212,0.8765274882316589,-0.26440882682800293,5.084628105163574,-0.2525086998939514,0.05070474371314049,0.03230396285653114,-0.002556881867349148,0.015312792733311653,1.0014400482177734,105.14490509033203,0.0,0.0,0.0
441403.586,-0.004909011535346508,0.004857340361922979,0.002796619199216366,0.012747710570693016,0.008063510060310364,0.008790001273155212,0.8765274882316589,-0.26440882682800293,5.084628105163574,-0.2743518054485321,0.10964498668909073,0.1157614141702652,-0.0025238993111997843,0.015104656107723713,1.0011863708496094,105.14490509033203,0.0,0.0,0.0
441407.585,-0.004909011535346508,0.004857340361922979,0.002796619199216366,0.012747710570693016,0.008063510060310364,0.008790001273155212,0.8765274882316589,-0.26440882682800293,5.084628105163574,-0.36754167079925537,0.3161490559577942,-0.12797905504703522,-0.0030669213738292456,0.014819011092185974,1.0013507604599,105.12303161621094,0.0,0.0,0.0
441411.487,-0.004780558869242668,0.004937978461384773,0.0028852601535618305,0.012943499721586704,0.00806309375911951,0.008938528597354889,0.8731842637062073,-0.2649106979370117,5.07996940612793,-0.19610510766506195,0.12868621945381165,-0.1655450165271759,-0.0032300869934260845,0.015726594254374504,1.001287817955017,105.12303161621094,0.0,0.0,0.0
441415.48,-0.004780558869242668,0.004937978461384773,0.0028852601535618305,0.012943499721586704,0.00806309375911951,0.008938528597354889,0.8731842637062073,-0.2649106979370117,5.07996940612793,0.09716732800006866,-0.25132066011428833,0.09187539666891098,-0.003249728586524725,0.0164603590965271,1.0015337467193604,105.12303161621094,0.0,0.0,0.0
441419.402,-0.004650445189327002,0.0050189197063446045,0.002975385170429945,0.013079898431897163,0.008124137297272682,0.009086824022233486,0.8708756566047668,-0.26521456241607666,5.074210166931152,-0.07502641528844833,0.02001444436609745,0.39875829219818115,-0.002675494644790888,0.0170618686825037,1.0017648935317993,105.12303161621094,0.0,0.0,0.0
441423.362,-0.004650445189327002,0.0050189197063446045,0.002975385170429945,0.013079898431897163,0.008124137297272682,0.009086824022233486,0.8708756566047668,-0.26521456241607666,5.074210166931152,0.14455649256706238,0.18358071148395538,0.010570296086370945,-0.003233209252357483,0.01732761412858963,1.0015438795089722,105.12303161621094,0.0,0.0,0.0
441427.355,-0.00321665545925498,0.005698780529201031,0.0031895486172288656,0.02187168598175049,0.01303301751613617,0.01019214279949665,0.8321883678436279,-0.34938716888427734,5.0985822677612305,-0.1010093092918396,-0.05665816739201546,-0.21329925954341888,-0.0032956390641629696,0.017920024693012238,1.0013076066970825,105.13943481445312,0.0,0.0,0.0
441431.258,-0.00415153568610549,0.0064673833549022675,0.0050260527059435844,0.015973644331097603,0.016256075352430344,0.021320490166544914,0.8022409677505493,-0.2957741320133209,5.134929180145264,0.03725817799568176,0.00257092691026628,0.15245899558067322,-0.002810419537127018,0.018057581037282944,1.0024574995040894,105.13943481445312,0.0,0.0,0.0
441435.234,-0.00415153568610549,0.0064673833549022675,0.0050260527059435844,0.015973644331097603,0.016256075352430344,0.021320490166544914,0.8022409677505493,-0.2957741320133209,5.134929180145264,0.07156234979629517,-0.06110812723636627,-0.005180196836590767,-0.0024046702310442924,0.017458612099289894,1.0033495426177979,105.13943481445312,0.0,0.0,0.0
441439.172,-0.003990796394646168,0.006631909869611263,0.005240550264716148,0.016175586730241776,0.016648035496473312,0.02157931961119175,0.8014557361602783,-0.29514527320861816,5.1298627853393555,0.15734191238880157,-0.33523187041282654,-0.15929901599884033,-0.0029891114681959152,0.016710322350263596,1.0025115013122559,105.13943481445312,0.0,0.0,0.0
441443.127,-0.003990796394646168,0.006631909869611263,0.005240550264716148,0.016175586730241776,0.016648035496473312,0.02157931961119175,0.8014557361602783,-0.29514527320861816,5.1298627853393555,-0.020983994007110596,0.09378788620233536,0.06692177057266235,-0.003384713549166918,0.01691078208386898,1.0016626119613647,105.13943481445312,0.0,0.0,0.0
441447.132,-0.003990796394646168,0.006631909869611263,0.005240550264716148,0.016175586730241776,0.016648035496473312,0.02157931961119175,0.8014557361602783,-0.29514527320861816,5.1298627853393555,-0.1936822235584259,0.179326593875885,0.16237513720989227,-0.0035485627595335245,0.017400741577148438,1.0017046928405762,105.2050552368164,0.0,0.0,0.0
441451.03,-0.003828218439593911,0.006799888797104359,0.005457442253828049,0.01634141243994236,0.01694662682712078,0.021799307316541672,0.8008125424385071,-0.29427170753479004,5.124335765838623,0.21722884476184845,-0.161773681640625,-0.1326507031917572,-0.0025772424414753914,0.017913974821567535,1.0029983520507812,105.2050552368164,0.0,0.0,0.0
441455.007,-0.003828218439593911,0.006799888797104359,0.005457442253828049,0.01634141243994236,0.01694662682712078,0.021799307316541672,0.8008125424385071,-0.29427170753479004,5.124335765838623,0.08798054605722427,-0.037118446081876755,-0.04594973474740982,-0.002394774230197072,0.017591482028365135,1.003333568572998,105.2050552368164,0.0,0.0,0.0
441458.943,-0.003663786919787526,0.006971251219511032,0.005676884204149246,0.016546323895454407,0.017324713990092278,0.022089291363954544,0.8008536100387573,-0.2935185730457306,5.119157314300537,-0.007152603939175606,-0.001576153328642249,0.15846550464630127,-0.0023562591522932053,0.016608815640211105,1.0021135807037354,105.2050552368164,0.0,0.0,0.0
441462.9,-0.003663786919787526,0.006971251219511032,0.005676884204149246,0.016546323895454407,0.017324713990092278,0.022089291363954544,0.8008536100387573,-0.2935185730457306,5.119157314300537,0.017963554710149765,-0.07319822907447815,-0.23941421508789062,-0.002642207546159625,0.015889719128608704,1.0020051002502441,105.2050552368164,0.0,0.0,0.0
441466.898,-0.003663786919787526,0.006971251219511032,0.005676884204149246,0.016546323895454407,0.017324713990092278,0.022089291363954544,0.8008536100387573,-0.2935185730457306,5.119157314300537,0.05321443825960159,-0.4294843375682831,0.14103953540325165,-0.003241515252739191,0.01546467375010252,1.0022321939468384,105.1995849609375,0.0,0.0,0.0
441470.801,-0.003497176105156541,0.007145695388317108,0.0058988966047763824,0.016777299344539642,0.01756294071674347,0.022313453257083893,0.8001086711883545,-0.29240718483924866,5.113630294799805,0.19450998306274414,-0.1334446370601654,0.18584103882312775,-0.004053197335451841,0.015305372886359692,1.0015772581100464,105.1995849609375,0.0,0.0,0.0
441474.78,-0.003497176105156541,0.007145695388317108,0.0058988966047763824,0.016777299344539642,0.01756294071674347,0.022313453257083893,0.8001086711883545,-0.29240718483924866,5.113630294799805,-0.04247201606631279,0.1809736043214798,0.03792228549718857,-0.0036806222051382065,0.015817906707525253,1.0008639097213745,105.1995849609375,0.0,0.0,0.0
441478.716,-0.0033288076519966125,0.007322119548916817,0.006122818682342768,0.01689784787595272,0.017720643430948257,0.022471217438578606,0.8002017736434937,-0.29108482599258423,5.109995365142822,0.09247739613056183,-0.08646706491708755,0.3437018394470215,-0.004053247161209583,0.015469602309167385,1.001112699508667,105.1995849609375,0.0,0.0,0.0
441482.668,-0.0033288076519966125,0.007322119548916817,0.006122818682342768,0.01689784787595272,0.017720643430948257,0.022471217438578606,0.8002017736434937,-0.29108482599258423,5.109995365142822,0.08005663007497787,0.0745198205113411,0.018450839444994926,-0.005075396038591862,0.015021891333162785,1.0011260509490967,105.1995849609375,0.0,0.0,0.0
441486.671,-0.0033288076519966125,0.007322119548916817,0.006122818682342768,0.01689784787595272,0.017720643430948257,0.022471217438578606,0.8002017736434937,-0.29108482599258423,5.109995365142822,0.0013074148446321487,0.2062273770570755,0.15861298143863678,-0.00538982218131423,0.01521881204098463,1.0002892017364502,105.1777114868164,0.0,0.0,0.0
441490.575,-0.0031596559565514326,0.007499972824007273,0.006348091177642345,0.016933968290686607,0.017848806455731392,0.022583508864045143,0.8001084327697754,-0.29102519154548645,5.106554985046387,0.2653402090072632,-0.09300888329744339,0.010027037933468819,-0.0046807522885501385,0.016118811443448067,0.9998736381530762,105.1777114868164,0.0,0.0,0.0
441494.55,-0.0031596559565514326,0.007499972824007273,0.006348091177642345,0.016933968290686607,0.017848806455731392,0.022583508864045143,0.8001084327697754,-0.29102519154548645,5.106554985046387,0.028464386239647865,-0.34035685658454895,-0.06745703518390656,-0.0026472003664821386,0.0168911162763834,0.999510645866394,105.1777114868164,0.0,0.0,0.0
441498.486,-0.0029899722430855036,0.007679584436118603,0.006573904771357775,0.01700427010655403,0.01807232014834881,0.02257944457232952,0.8003864288330078,-0.2897890508174896,5.10168981552124,0.07767648249864578,-0.23351293802261353,0.13537487387657166,-0.002552132587879896,0.017407627776265144,1.0002943277359009,105.1777114868164,0.0,0.0,0.0
441502.441,-0.0029899722430855036,0.007679584436118603,0.006573904771357775,0.01700427010655403,0.01807232014834881,0.02257944457232952,0.8003864288330078,-0.2897890508174896,5.10168981552124,0.30068692564964294,-0.3826567828655243,-0.15985150635242462,-0.0032090565655380487,0.017115788534283638,1.0010356903076172,105.1777114868164,0.0,0.0,0.0
441506.45,-0.0029899722430855036,0.007679584436118603,0.006573904771357775,0.01700427010655403,0.01807232014834881,0.02257944457232952,0.8003864288330078,-0.2897890508174896,5.10168981552124,-0.04524948447942734,0.14354147017002106,-0.08514969050884247,-0.004101550206542015,0.016448965296149254,1.0013048648834229,105.17224884033203,0.0,0.0,0.0
441510.343,-0.0028190775774419308,0.007861949503421783,0.006800096482038498,0.017176151275634766,0.01839941181242466,0.02265911176800728,0.8011713027954102,-0.28687772154808044,5.0961079597473145,-0.2419411540031433,0.09720203280448914,-0.04913484305143356,-0.003897679504007101,0.015850983560085297,1.0021928548812866,105.17224884033203,0.0,0.0,0.0
441514.316,-0.0028190775774419308,0.007861949503421783,0.006800096482038498,0.017176151275634766,0.01839941181242466,0.02265911176800728,0.8011713027954102,-0.28687772154808044,5.0961079597473145,-0.027742605656385422,-0.22296199202537537,-0.009669451974332333,-0.003693491918966174,0.015875933691859245,1.0020005702972412,105.17224884033203,0.0,0.0,0.0
441518.261,-0.002646848326548934,0.008046950213611126,0.00702771358191967,0.017271222546696663,0.018599599599838257,0.022864539176225662,0.7990638613700867,-0.28681954741477966,5.090901851654053,0.15886671841144562,-0.2596758008003235,0.01474836003035307,-0.004150410648435354,0.01510710921138525,1.0009500980377197,105.17224884033203,0.0,0.0,0.0
441522.212,-0.002646848326548934,0.008046950213611126,0.00702771358191967,0.017271222546696663,0.018599599599838257,0.022864539176225662,0.7990638613700867,-0.28681954741477966,5.090901851654053,0.056084636598825455,-0.12622851133346558,0.04923570528626442,-0.0039373659528791904,0.01449588406831026,1.00003981590271,105.17224884033203,0.0,0.0,0.0
441526.212,-0.002646848326548934,0.008046950213611126,0.00702771358191967,0.017271222546696663,0.018599599599838257,0.022864539176225662,0.7990638613700867,-0.28681954741477966,5.090901851654053,0.07221126556396484,0.10976368933916092,0.004808283410966396,-0.003571462817490101,0.014970901422202587,0.9991387128829956,105.1995849609375,0.0,0.0,0.0
441530.119,-0.003706245683133602,0.008166779763996601,0.009420735761523247,0.009661820717155933,0.017604384571313858,0.03424150124192238,0.8039933443069458,-0.2177882194519043,5.145577907562256,0.03230202570557594,0.003974747844040394,-0.0947452262043953,-0.0028657675720751286,0.015499239787459373,0.9985941052436829,105.1995849609375,0.0,0.0,0.0
441534.104,-0.003706245683133602,0.008166779763996601,0.009420735761523247,0.009661820717155933,0.017604384571313858,0.03424150124192238,0.8039933443069458,-0.2177882194519043,5.145577907562256,0.2520448565483093,0.10488395392894745,-0.07850166410207748,-0.002129086060449481,0.0159163661301136,0.9993647933006287,105.1995849609375,0.0,0.0,0.0
441538.024,-0.0036091965157538652,0.008343609049916267,0.009762699715793133,0.009749469347298145,0.0177609883248806,0.03415139019489288,0.8043883442878723,-0.21836435794830322,5.139709949493408,0.15228569507598877,0.09062763303518295,0.063675157725811,-0.0014026074204593897,0.015623739920556545,1.0008316040039062,105.1995849609375,0.0,0.0,0.0
441541.984,-0.0036091965157538652,0.008343609049916267,0.009762699715793133,0.009749469347298145,0.0177609883248806,0.03415139019489288,0.8043883442878723,-0.21836435794830322,5.139709949493408,-0.15060020983219147,0.010560761205852032,0.3734041452407837,-0.0018356784712523222,0.01666386052966118,1.0016471147537231,105.1995849609375,0.0,0.0,0.0
441545.991,-0.007150465156883001,0.004270344041287899,0.0019082458456978202,-0.012748358771204948,-0.003653541672974825,-0.0039678593166172504,0.9708521962165833,-0.01313411258161068,5.115324974060059,0.04542972519993782,-0.08020646125078201,-0.1507144570350647,-0.003110320772975683,0.017197299748659134,1.0010576248168945,105.30347442626953,0.0,0.0,0.0
441549.894,-0.007631737273186445,0.0035188142210245132,0.0030365940183401108,-0.01517577562481165,-0.008107244037091732,0.0024242019280791283,1.006154179573059,0.0100941751152277,5.174361705780029,-0.025518188253045082,0.18111667037010193,0.05887291207909584,-0.0036859011743217707,0.016567161306738853,1.0010015964508057,105.30347442626953,0.0,0.0,0.0
441553.864,-0.00962238758802414,0.0009997297311201692,0.0018125299829989672,-0.026696663349866867,-0.021977700293064117,-0.0027815254870802164,1.1178418397903442,0.11713306605815887,5.100797176361084,0.23765283823013306,-0.02864457666873932,0.00686807231977582,-0.004930425900965929,0.015788370743393898,1.0017300844192505,105.30347442626953,0.0,0.0,0.0
441557.797,-0.009892167523503304,0.0007781847380101681,0.001785381231456995,-0.027261245995759964,-0.022328928112983704,-0.0026473593898117542,1.1176278591156006,0.11637850850820541,5.095401763916016,0.03797724470496178,-0.09636888653039932,-0.1432393491268158,-0.005072212778031826,0.015620349906384945,1.0020432472229004,105.30347442626953,0.0,0.0,0.0
441561.754,-0.009892167523503304,0.0007781847380101681,0.001785381231456995,-0.027261245995759964,-0.022328928112983704,-0.0026473593898117542,1.1176278591156006,0.11637850850820541,5.095401763916016,0.04375684633851051,0.23350870609283447,0.18244628608226776,-0.005428431089967489,0.016169140115380287,1.0022350549697876,105.30347442626953,0.0,0.0,0.0
441565.758,-0.010320030152797699,0.00018217199249193072,0.00042875908548012376,-0.02951868623495102,-0.025391140952706337,-0.009472300298511982,1.143011212348938,0.13735876977443695,5.069534778594971,0.3524041175842285,0.017723746597766876,0.3610965311527252,-0.005962449591606855,0.016289563849568367,1.0021178722381592,105.29801177978516,0.0,0.0,0.0
441569.666,-0.010618831031024456,-7.405143696814775e-05,0.00033514905953779817,-0.03024381399154663,-0.025851069018244743,-0.009248737245798111,1.1429128646850586,0.1366584300994873,5.06528377532959,0.09373383969068527,0.1951979249715805,-0.0747503712773323,-0.005714986007660627,0.016296112909913063,1.0012059211730957,105.29801177978516,0.0,0.0,0.0
441573.636,-0.010618831031024456,-7.405143696814775e-05,0.00033514905953779817,-0.03024381399154663,-0.025851069018244743,-0.009248737245798111,1.1429128646850586,0.1366584300994873,5.06528377532959,-0.24203534424304962,-0.08090296387672424,0.016064345836639404,-0.0049998159520328045,0.01648380048573017,1.0016257762908936,105.29801177978516,0.0,0.0,0.0
441577.575,-0.010924984700977802,-0.0003346731245983392,0.00024346931604668498,-0.030989283695816994,-0.026270722970366478,-0.009086254052817822,1.1421860456466675,0.13588513433933258,5.060797214508057,-0.06026468053460121,-0.015086152590811253,-0.018529977649450302,-0.004683639854192734,0.016624130308628082,1.0006693601608276,105.29801177978516,0.0,0.0,0.0
441581.524,-0.010924984700977802,-0.0003346731245983392,0.00024346931604668498,-0.030989283695816994,-0.026270722970366478,-0.009086254052817822,1.1421860456466675,0.13588513433933258,5.060797214508057,0.07873380929231644,-0.09042239189147949,0.13355658948421478,-0.0052304621785879135,0.016567297279834747,1.0001063346862793,105.29801177978516,0.0,0.0,0.0
441585.525,-0.011036652140319347,-0.0007532916497439146,-0.000523790018633008,-0.03165553882718086,-0.028619054704904556,-0.01319943554699421,1.1630704402923584,0.14273735880851746,5.035508155822754,0.16075867414474487,-0.4583751857280731,0.0631122812628746,-0.004234778694808483,0.016008561477065086,1.0015926361083984,105.2761459350586,0.0,0.0,0.0
441589.429,-0.011356648057699203,-0.0010416569421067834,-0.000655448529869318,-0.032346174120903015,-0.029051434248685837,-0.013131248764693737,1.162132978439331,0.143792986869812,5.031184196472168,0.089039146900177,0.06727563589811325,0.15815630555152893,-0.0035119103267788887,0.015954751521348953,1.00149667263031,105.2761459350586,0.0,0.0,0.0
441593.404,-0.011356648057699203,-0.0010416569421067834,-0.000655448529869318,-0.032346174120903015,-0.029051434248685837,-0.013131248764693737,1.162132978439331,0.143792986869812,5.031184196472168,0.048946622759103775,0.1517823189496994,-0.07967669516801834,-0.0038140250835567713,0.01615453138947487,0.9999762773513794,105.2761459350586,0.0,0.0,0.0
441597.343,-0.011682981625199318,-0.0013345330953598022,-0.0007861957419663668,-0.03292311728000641,-0.029521189630031586,-0.013017155230045319,1.161957859992981,0.14391806721687317,5.026606559753418,-0.017048398032784462,-0.11315207928419113,-0.16264988481998444,-0.0037772920913994312,0.015588770620524883,0.998884379863739,105.2761459350586,0.0,0.0,0.0
441601.295,-0.011682981625199318,-0.0013345330953598022,-0.0007861957419663668,-0.03292311728000641,-0.029521189630031586,-0.013017155230045319,1.161957859992981,0.14391806721687317,5.026606559753418,0.07710158824920654,-0.012132716365158558,0.03872198238968849,-0.002960453974083066,0.015897486358880997,1.0002620220184326,105.2761459350586,0.0,0.0,0.0
441605.297,-0.011641898192465305,-0.001623582560569048,-0.0012259171344339848,-0.03275845944881439,-0.031278494745492935,-0.015538220293819904,1.1783521175384521,0.14323243498802185,5.006178855895996,-0.33118605613708496,-0.19064153730869293,0.15744194388389587,-0.0013047370593994856,0.01627212017774582,1.0010706186294556,105.2761459350586,0.0,0.0,0.0
441609.201,-0.011972025036811829,-0.001938926987349987,-0.0013813477708026767,-0.033269621431827545,-0.03178779035806656,-0.015546813607215881,1.177018165588379,0.14357708394527435,5.000877857208252,-0.07089678943157196,0.029709579423069954,-0.15524892508983612,-0.0007533209281973541,0.01729028858244419,1.001218318939209,105.2761459350586,0.0,0.0,0.0
441613.182,-0.011972025036811829,-0.001938926987349987,-0.0013813477708026767,-0.033269621431827545,-0.03178779035806656,-0.015546813607215881,1.177018165588379,0.14357708394527435,5.000877857208252,0.12477339804172516,0.36179104447364807,0.019818443804979324,-0.001339341513812542,0.017429150640964508,1.001457929611206,105.2761459350586,0.0,0.0,0.0
441617.108,-0.012306314893066883,-0.00225864932872355,-0.0015361313708126545,-0.03359118103981018,-0.032154060900211334,-0.015408760868012905,1.1750205755233765,0.1425376683473587,4.995720386505127,-0.05947813019156456,0.06823937594890594,0.05242878943681717,-0.0030561420135200024,0.01665082573890686,1.0016047954559326,105.2761459350586,0.0,0.0,0.0
441621.069,-0.012306314893066883,-0.00225864932872355,-0.0015361313708126545,-0.03359118103981018,-0.032154060900211334,-0.015408760868012905,1.1750205755233765,0.1425376683473587,4.995720386505127,0.16330797970294952,0.08908849954605103,0.21762023866176605,-0.0038776015862822533,0.016759410500526428,1.0008554458618164,105.2761459350586,0.0,0.0,0.0
441625.069,-0.012306314893066883,-0.00225864932872355,-0.0015361313708126545,-0.03359118103981018,-0.032154060900211334,-0.015408760868012905,1.1750205755233765,0.1425376683473587,4.995720386505127,-0.17102950811386108,0.41938671469688416,0.055197350680828094,-0.003589749801903963,0.017352884635329247,1.0012364387512207,105.29801177978516,0.0,0.0,0.0
441628.976,-0.0126449353992939,-0.002582254819571972,-0.0016895411536097527,-0.0341358408331871,-0.03256437927484512,-0.015272066928446293,1.1741490364074707,0.14091575145721436,4.9917073249816895,-0.21231268346309662,0.23344168066978455,-0.15523791313171387,-0.0036006022710353136,0.01718127354979515,1.0008761882781982,105.29801177978516,0.0,0.0,0.0
441632.961,-0.012305348180234432,-0.0019241439877077937,-0.0013983213575556874,-0.032418373972177505,-0.028701478615403175,-0.01324352528899908,1.142037034034729,0.12257204949855804,4.93337345123291,0.253715842962265,-0.36345016956329346,0.0014047756558284163,-0.003153371624648571,0.016364069655537605,1.0004688501358032,105.29801177978516,0.0,0.0,0.0
