timestamp,stateEstimate.x,stateEstimate.y,stateEstimate.z,stateEstimate.vx,stateEstimate.vy,stateEstimate.vz,stateEstimate.roll,stateEstimate.pitch,stateEstimate.yaw,gyro.x,gyro.y,gyro.z,acc.x,acc.y,acc.z,baro.asl,lighthouse.x,lighthouse.y,lighthouse.z
79880.317,0.11076898872852325,-0.07003752887248993,-0.0038941444363445044,0.025298001244664192,0.025216255336999893,-0.007503939792513847,0.29821282625198364,0.6265988349914551,7.350296497344971,-0.0380626879632473,0.3572016656398773,0.21132966876029968,0.015995677560567856,0.009470965713262558,0.9996100068092346,105.1995849609375,0.0,0.0,0.0
79884.29,0.11076898872852325,-0.07003752887248993,-0.0038941444363445044,0.025298001244664192,0.025216255336999893,-0.007503939792513847,0.29821282625198364,0.6265988349914551,7.350296497344971,-0.29883724451065063,0.1121169924736023,0.09450002014636993,0.015367534011602402,0.009268082678318024,0.9994842410087585,105.1995849609375,0.0,0.0,0.0
79888.225,0.11102422326803207,-0.0697830468416214,-0.003969252575188875,0.02575243078172207,0.025676563382148743,-0.0075177885591983795,0.296800434589386,0.6226613521575928,7.344273090362549,0.0666971206665039,-0.22330410778522491,-0.21942868828773499,0.015238577499985695,0.008852033875882626,0.9993477463722229,105.1995849609375,0.0,0.0,0.0
79892.179,0.10956629365682602,-0.06984851509332657,-0.0063308835960924625,0.017487213015556335,0.025076018646359444,-0.0219743512570858,0.2931883931159973,0.6922611594200134,7.348811626434326,0.11674009263515472,-0.37471818923950195,-0.052426278591156006,0.015594118274748325,0.007625577971339226,1.0005501508712769,105.1995849609375,0.0,0.0,0.0
79896.19,0.10601230710744858,-0.0722493827342987,-0.00476121949031949,0.0020713466219604015,0.008418872021138668,-0.012168350629508495,0.41392025351524353,0.8397001624107361,7.3125691413879395,0.15447784960269928,0.017164450138807297,0.014353855513036251,0.016838161274790764,0.007832699455320835,1.002357006072998,105.18865203857422,0.0,0.0,0.0
79900.089,0.10601230710744858,-0.0722493827342987,-0.00476121949031949,0.0020713466219604015,0.008418872021138668,-0.012168350629508495,0.41392025351524353,0.8397001624107361,7.3125691413879395,0.2402753233909607,-0.027059653773903847,0.06045129522681236,0.017803002148866653,0.00938358437269926,1.0023573637008667,105.18865203857422,0.0,0.0,0.0
79904.065,0.10551836341619492,-0.07300127297639847,-0.002710797591134906,-0.00031913889688439667,0.0031836703419685364,0.0003851644869428128,0.4536680281162262,0.8643797039985657,7.371776580810547,-0.08947999030351639,-0.26385974884033203,0.10483650863170624,0.017486849799752235,0.009990333579480648,1.0016169548034668,105.18865203857422,0.0,0.0,0.0
79907.997,0.105516217648983,-0.07296884059906006,-0.0027057481929659843,-0.00010921814828179777,0.0033035005908459425,0.0006250612786971033,0.45485857129096985,0.8638535141944885,7.364906311035156,0.030671192333102226,0.11792696267366409,0.017132187262177467,0.01798849180340767,0.010257312096655369,1.00132155418396,105.18865203857422,0.0,0.0,0.0
79911.945,0.10801581293344498,-0.07179737091064453,-0.001643582247197628,0.007915967144072056,0.010434537194669247,0.007374117150902748,0.40560948848724365,0.787860631942749,7.406357288360596,-0.06083791330456734,0.520795464515686,-0.040225639939308167,0.018180523067712784,0.0095156105235219,1.0023678541183472,105.18865203857422,0.0,0.0,0.0
79915.956,0.10543181747198105,-0.07347290217876434,-0.001599334180355072,0.001893254928290844,0.0018697782652452588,0.007582054939121008,0.4690312445163727,0.8484365940093994,7.373610496520996,-0.07457704097032547,0.22040118277072906,0.1497427523136139,0.016937758773565292,0.009030441753566265,1.002091407775879,105.0628890991211,0.0,0.0,0.0
79919.864,0.10543181747198105,-0.07347290217876434,-0.001599334180355072,0.001893254928290844,0.0018697782652452588,0.007582054939121008,0.4690312445163727,0.8484365940093994,7.373610496520996,0.2140534371137619,-0.34449008107185364,0.091986283659935,0.015187367796897888,0.008191419765353203,1.0005508661270142,105.0628890991211,0.0,0.0,0.0
79923.846,0.10512499511241913,-0.07386384159326553,-0.0005625106859952211,0.0008663454209454358,-0.0002057770179817453,0.014643767848610878,0.48431161046028137,0.8590025305747986,7.435756683349609,0.13352495431900024,-0.03546253591775894,-0.2033156007528305,0.01444465946406126,0.008449736982584,0.9993714094161987,105.0628890991211,0.0,0.0,0.0
79927.762,0.10513409227132797,-0.07386575639247894,-0.00041544303530827165,0.0009526667417958379,-0.0001776778226485476,0.014770139940083027,0.48459574580192566,0.8586249947547913,7.428982734680176,-0.08956602215766907,0.3458053469657898,-0.058185819536447525,0.015642300248146057,0.008262054063379765,0.9990909695625305,105.0628890991211,0.0,0.0,0.0
79931.719,0.10513409227132797,-0.07386575639247894,-0.00041544303530827165,0.0009526667417958379,-0.0001776778226485476,0.014770139940083027,0.48459574580192566,0.8586249947547913,7.428982734680176,-0.15327368676662445,0.21455048024654388,-0.03968814015388489,0.015852319076657295,0.008151281625032425,0.999906063079834,105.0628890991211,0.0,0.0,0.0
79935.733,0.10514385253190994,-0.07386759668588638,-0.00026796088786795735,0.000999870477244258,-0.00019072923169005662,0.014726671390235424,0.4836518466472626,0.8553512692451477,7.420598030090332,0.1966255158185959,-0.00939828809350729,0.061464838683605194,0.016574889421463013,0.007867183536291122,1.000464916229248,105.041015625,0.0,0.0,0.0
79939.636,0.10514385253190994,-0.07386759668588638,-0.00026796088786795735,0.000999870477244258,-0.00019072923169005662,0.014726671390235424,0.4836518466472626,0.8553512692451477,7.420598030090332,0.0896221399307251,-0.45793038606643677,-0.03366382420063019,0.016951384022831917,0.007717937231063843,0.999332845211029,105.041015625,0.0,0.0,0.0
79943.595,0.104856476187706,-0.07422301173210144,0.0006050957017578185,-0.00018898805137723684,-0.002213486237451434,0.021185869351029396,0.4983243942260742,0.8673786520957947,7.476807117462158,-0.12594753503799438,0.022543281316757202,-0.003476119367405772,0.016877179965376854,0.007489816285669804,0.9979897737503052,105.041015625,0.0,0.0,0.0
79947.529,0.10408283770084381,-0.07506013661623001,-0.0008901625988073647,-0.0024651915300637484,-0.006567815318703651,0.009061169810593128,0.5312315821647644,0.8955361247062683,7.46981954574585,0.05899261310696602,-0.19261015951633453,0.03267492726445198,0.01619833894073963,0.007123283110558987,0.9984526634216309,105.041015625,0.0,0.0,0.0
79951.481,0.10408283770084381,-0.07506013661623001,-0.0008901625988073647,-0.0024651915300637484,-0.006567815318703651,0.009061169810593128,0.5312315821647644,0.8955361247062683,7.46981954574585,0.12011674046516418,0.13395820558071136,0.23633070290088654,0.016290461644530296,0.0073575228452682495,0.9990408420562744,105.041015625,0.0,0.0,0.0
79955.489,0.10405868291854858,-0.07512672245502472,-0.0008002006798051298,-0.002366662258282304,-0.006748530548065901,0.008931697346270084,0.530936598777771,0.894762396812439,7.463264465332031,0.08060004562139511,-0.009082689881324768,0.10140122473239899,0.016100695356726646,0.008398845791816711,0.9993193745613098,105.02461242675781,0.0,0.0,0.0
79959.393,0.10405868291854858,-0.07512672245502472,-0.0008002006798051298,-0.002366662258282304,-0.006748530548065901,0.008931697346270084,0.530936598777771,0.894762396812439,7.463264465332031,0.15564881265163422,0.06463637202978134,-0.004784347955137491,0.015340760350227356,0.009277640841901302,1.0002167224884033,105.02461242675781,0.0,0.0,0.0
79963.379,0.10405868291854858,-0.07512672245502472,-0.0008002006798051298,-0.002366662258282304,-0.006748530548065901,0.008931697346270084,0.530936598777771,0.894762396812439,7.463264465332031,0.1363203078508377,0.07383355498313904,-0.21665044128894806,0.01468679215759039,0.009651239030063152,1.0002301931381226,105.02461242675781,0.0,0.0,0.0
79967.297,0.10403504222631454,-0.07519438862800598,-0.0007108859717845917,-0.002362524624913931,-0.006784346420317888,0.008931754156947136,0.5316393971443176,0.8931044936180115,7.456060409545898,0.029671896249055862,-0.13683246076107025,-0.1256515085697174,0.013449851423501968,0.009303923696279526,1.0006142854690552,105.02461242675781,0.0,0.0,0.0
79971.249,0.10742093622684479,-0.07277628779411316,1.6946411051321775e-05,0.011316612362861633,0.007472651079297066,0.013057583943009377,0.4306725859642029,0.761592447757721,7.488272190093994,-0.10468020290136337,-0.06334049999713898,-0.22878552973270416,0.013942341320216656,0.009835424832999706,1.0009613037109375,105.02461242675781,0.0,0.0,0.0
79975.256,0.1075342670083046,-0.07270053029060364,0.000147894024848938,0.011351021006703377,0.0076778847724199295,0.01313212513923645,0.43049806356430054,0.7615500092506409,7.478946685791016,-0.02137630805373192,0.2225428819656372,-0.12180430442094803,0.014651484787464142,0.010092766024172306,1.0003395080566406,104.98633575439453,0.0,0.0,0.0
79979.168,0.1075342670083046,-0.07270053029060364,0.000147894024848938,0.011351021006703377,0.0076778847724199295,0.01313212513923645,0.43049806356430054,0.7615500092506409,7.478946685791016,-0.01169221568852663,-0.00893827248364687,-0.11836421489715576,0.014502625912427902,0.009880310855805874,0.9998335242271423,104.98633575439453,0.0,0.0,0.0
79983.141,0.1075342670083046,-0.07270053029060364,0.000147894024848938,0.011351021006703377,0.0076778847724199295,0.01313212513923645,0.43049806356430054,0.7615500092506409,7.478946685791016,-0.057219743728637695,-0.2061876356601715,0.11022687703371048,0.013742003589868546,0.008118251338601112,0.9999039173126221,104.98633575439453,0.0,0.0,0.0
79987.065,0.10764818638563156,-0.07262258231639862,0.0002793348394334316,0.011434509418904781,0.007910597138106823,0.01315622590482235,0.4296914339065552,0.760237455368042,7.470649719238281,0.11582385003566742,-0.17616674304008484,-0.08199208229780197,0.0136075709015131,0.006701536010950804,0.9993623495101929,104.98633575439453,0.0,0.0,0.0
79991.016,0.10764818638563156,-0.07262258231639862,0.0002793348394334316,0.011434509418904781,0.007910597138106823,0.01315622590482235,0.4296914339065552,0.760237455368042,7.470649719238281,-0.04543231800198555,0.020662939175963402,-0.1273215264081955,0.013681154698133469,0.006472132168710232,0.99995356798172,104.98633575439453,0.0,0.0,0.0
79995.031,0.10514343529939651,-0.0747142881155014,0.00015276209160219878,-0.0007336839335039258,-0.005394542124122381,0.012167271226644516,0.5232540369033813,0.8756503462791443,7.427699565887451,0.050799474120140076,0.26124393939971924,-0.17787539958953857,0.013063685037195683,0.0071323337033391,1.0004761219024658,104.99726867675781,0.0,0.0,0.0
79998.931,0.10514343529939651,-0.0747142881155014,0.00015276209160219878,-0.0007336839335039258,-0.005394542124122381,0.012167271226644516,0.5232540369033813,0.8756503462791443,7.427699565887451,-0.01434175856411457,-0.07810564339160919,-0.053210802376270294,0.01269990298897028,0.007791927084326744,1.0006377696990967,104.99726867675781,0.0,0.0,0.0
80002.902,0.10478367656469345,-0.0748739168047905,0.0010480645578354597,-0.002528440672904253,-0.0066161127761006355,0.018802884966135025,0.5304989218711853,0.8916779160499573,7.481099605560303,-0.007896505296230316,-0.054723359644412994,0.15394343435764313,0.012762852013111115,0.008338535204529762,1.0010005235671997,104.99726867675781,0.0,0.0,0.0
80006.837,0.10393387824296951,-0.07550390809774399,-0.0005671588587574661,-0.006282353773713112,-0.010283581912517548,0.005901561118662357,0.5552467703819275,0.9245669841766357,7.4625115394592285,0.060661766678094864,0.013970429077744484,-0.18787690997123718,0.013715620152652264,0.009100697934627533,1.0011167526245117,104.99726867675781,0.0,0.0,0.0
80010.783,0.10393387824296951,-0.07550390809774399,-0.0005671588587574661,-0.006282353773713112,-0.010283581912517548,0.005901561118662357,0.5552467703819275,0.9245669841766357,7.4625115394592285,-0.17895686626434326,-0.1440751701593399,-0.20764076709747314,0.015055024065077305,0.00894845835864544,1.000485897064209,104.99726867675781,0.0,0.0,0.0
80014.799,0.10256233811378479,-0.07668498903512955,-0.0005151248187758029,-0.010455946438014507,-0.01668558083474636,0.00627768412232399,0.6012277007102966,0.9631661176681519,7.42990255355835,0.10868451744318008,-0.33995288610458374,-0.13633079826831818,0.015376310795545578,0.006925780791789293,0.9992563724517822,104.96993255615234,0.0,0.0,0.0
80018.698,0.10256233811378479,-0.07668498903512955,-0.0005151248187758029,-0.010455946438014507,-0.01668558083474636,0.00627768412232399,0.6012277007102966,0.9631661176681519,7.42990255355835,0.21854890882968903,-0.08246046304702759,-0.20830045640468597,0.014837749302387238,0.005993975792080164,0.999713122844696,104.96993255615234,0.0,0.0,0.0
80022.68,0.10256233811378479,-0.07668498903512955,-0.0005151248187758029,-0.010455946438014507,-0.01668558083474636,0.00627768412232399,0.6012277007102966,0.9631661176681519,7.42990255355835,0.0014599001733586192,0.07681969553232193,-0.05479894578456879,0.01530421618372202,0.007000971585512161,0.999945342540741,104.96993255615234,0.0,0.0,0.0
80026.6,0.1024572104215622,-0.07685383409261703,-0.0004524915129877627,-0.010572331957519054,-0.01708179898560047,0.006249748170375824,0.6019425392150879,0.9637861847877502,7.42087984085083,-0.11365891993045807,-0.03557225316762924,0.37279897928237915,0.015442343428730965,0.008058028295636177,1.0009784698486328,104.96993255615234,0.0,0.0,0.0
80030.556,0.1024572104215622,-0.07685383409261703,-0.0004524915129877627,-0.010572331957519054,-0.01708179898560047,0.006249748170375824,0.6019425392150879,0.9637861847877502,7.42087984085083,-0.06517388671636581,-0.1805952787399292,0.1787801831960678,0.014373335056006908,0.008426281623542309,1.0013951063156128,104.96993255615234,0.0,0.0,0.0
80034.56,0.10235078632831573,-0.07702600210905075,-0.00038948969449847937,-0.010715264827013016,-0.017350967973470688,0.00635136803612113,0.6006245613098145,0.9633449912071228,7.415681838989258,-0.12578682601451874,0.06071643531322479,0.17935624718666077,0.013678265735507011,0.008410371840000153,1.002445936203003,105.0191421508789,0.0,0.0,0.0
80038.466,0.10235078632831573,-0.07702600210905075,-0.00038948969449847937,-0.010715264827013016,-0.017350967973470688,0.00635136803612113,0.6006245613098145,0.9633449912071228,7.415681838989258,0.16023966670036316,-0.02380971610546112,0.019067589193582535,0.01424481626600027,0.00890007521957159,1.0016576051712036,105.0191421508789,0.0,0.0,0.0
80042.444,0.10235078632831573,-0.07702600210905075,-0.00038948969449847937,-0.010715264827013016,-0.017350967973470688,0.00635136803612113,0.6006245613098145,0.9633449912071228,7.415681838989258,0.03429779037833214,-0.0006270701996982098,-0.06137808784842491,0.014974411576986313,0.009389404207468033,1.0005263090133667,105.0191421508789,0.0,0.0,0.0
80046.367,0.10224241018295288,-0.07720054686069489,-0.00032502226531505585,-0.010961657389998436,-0.01755613274872303,0.006542856805026531,0.6002900004386902,0.9622800946235657,7.408993721008301,0.13178981840610504,-0.383141428232193,0.09084051102399826,0.015329081565141678,0.00957360491156578,1.0005009174346924,105.0191421508789,0.0,0.0,0.0
80050.325,0.10224241018295288,-0.07720054686069489,-0.00032502226531505585,-0.010961657389998436,-0.01755613274872303,0.006542856805026531,0.6002900004386902,0.9622800946235657,7.408993721008301,0.17868614196777344,-0.1692756563425064,-0.2895496189594269,0.015337392687797546,0.008444014936685562,1.0007094144821167,105.0191421508789,0.0,0.0,0.0
80054.331,0.10213212668895721,-0.0773768499493599,-0.0002592391683720052,-0.011097426526248455,-0.01770257204771042,0.006614556070417166,0.6010119318962097,0.9635715484619141,7.400937080383301,0.0818098708987236,-0.07876487821340561,-0.11131712794303894,0.015260839834809303,0.007210246752947569,1.0005042552947998,105.04647827148438,0.0,0.0,0.0
80058.235,0.10213212668895721,-0.0773768499493599,-0.0002592391683720052,-0.011097426526248455,-0.01770257204771042,0.006614556070417166,0.6010119318962097,0.9635715484619141,7.400937080383301,-0.01024150662124157,0.03676493838429451,0.028553104028105736,0.015135260298848152,0.006792135536670685,1.000622272491455,105.04647827148438,0.0,0.0,0.0
80062.219,0.10213212668895721,-0.0773768499493599,-0.0002592391683720052,-0.011097426526248455,-0.01770257204771042,0.006614556070417166,0.6010119318962097,0.9635715484619141,7.400937080383301,0.09603506326675415,-0.13244159519672394,-0.11791359633207321,0.014818971045315266,0.006788690574467182,0.9995028376579285,105.04647827148438,0.0,0.0,0.0
80113.635,0.10815004259347916,-0.07405413687229156,0.0007749532232992351,0.02280677668750286,0.003686354262754321,0.009850745089352131,0.45958906412124634,0.6760753989219666,7.4003005027771,0.09276977926492691,0.05962615832686424,-0.09897556900978088,0.013759045861661434,0.007909858599305153,1.001680850982666,105.09569549560547,0.0,0.0,0.0
80117.542,0.10815004259347916,-0.07405413687229156,0.0007749532232992351,0.02280677668750286,0.003686354262754321,0.009850745089352131,0.45958906412124634,0.6760753989219666,7.4003005027771,0.12112626433372498,0.11297660320997238,0.022062303498387337,0.015280071645975113,0.007864728569984436,1.0010929107666016,105.09569549560547,0.0,0.0,0.0
80121.511,0.10815004259347916,-0.07405413687229156,0.0007749532232992351,0.02280677668750286,0.003686354262754321,0.009850745089352131,0.45958906412124634,0.6760753989219666,7.4003005027771,-0.1391352117061615,0.046204980462789536,-0.034294094890356064,0.016556430608034134,0.007583032362163067,0.999456524848938,105.09569549560547,0.0,0.0,0.0
80125.449,0.10609202831983566,-0.07415255904197693,-0.003054751316085458,0.007156050764024258,0.002363571198657155,-0.012255155481398106,0.4563930034637451,0.8062474131584167,7.387973785400391,0.06348282098770142,-0.10334736853837967,-0.15077824890613556,0.016238057985901833,0.007295042276382446,0.9987144470214844,105.09569549560547,0.0,0.0,0.0
80129.406,0.10609202831983566,-0.07415255904197693,-0.003054751316085458,0.007156050764024258,0.002363571198657155,-0.012255155481398106,0.4563930034637451,0.8062474131584167,7.387973785400391,-0.06660101562738419,-0.3014037609100342,0.17419672012329102,0.016140110790729523,0.008616311475634575,0.9985961318016052,105.09569549560547,0.0,0.0,0.0
80133.404,0.10616468638181686,-0.07412886619567871,-0.003177800215780735,0.007375627290457487,0.0023744513746351004,-0.01235435251146555,0.45568200945854187,0.8067429661750793,7.3803629875183105,0.14985284209251404,-0.22480803728103638,0.017516925930976868,0.015500656329095364,0.010602083057165146,0.9983466863632202,105.11756896972656,0.0,0.0,0.0
80137.312,0.10505404323339462,-0.07499529421329498,-0.00048216315917670727,-0.0005129711353220046,-0.003053985070437193,0.0024671200662851334,0.49107474088668823,0.8753436803817749,7.439300537109375,0.27335086464881897,0.14582639932632446,-0.005069866310805082,0.015612105838954449,0.010776587761938572,0.9989007711410522,105.11756896972656,0.0,0.0,0.0
80141.29,0.10505404323339462,-0.07499529421329498,-0.00048216315917670727,-0.0005129711353220046,-0.003053985070437193,0.0024671200662851334,0.49107474088668823,0.8753436803817749,7.439300537109375,0.061345893889665604,0.1361197680234909,0.07986927777528763,0.015202936716377735,0.010925219394266605,0.9996650815010071,105.11756896972656,0.0,0.0,0.0
80145.22,0.10427204519510269,-0.07583380490541458,-0.0023540914990007877,-0.0056600323878228664,-0.007479861844331026,-0.00761012639850378,0.5249704718589783,0.921518087387085,7.437521457672119,-0.06698569655418396,0.2078894078731537,0.01276732049882412,0.015131236054003239,0.011307049542665482,1.000588297843933,105.11756896972656,0.0,0.0,0.0
80149.181,0.10774516314268112,-0.07282555848360062,-0.001957968343049288,0.013947355560958385,0.010534007102251053,-0.004964376799762249,0.3979507386684418,0.741721510887146,7.4760661125183105,-0.06925813853740692,0.22667719423770905,-0.1377841830253601,0.015370577573776245,0.01042281836271286,1.0011496543884277,105.11756896972656,0.0,0.0,0.0
80153.171,0.10788553208112717,-0.07271822541952133,-0.002007091650739312,0.014127109199762344,0.010930584743618965,-0.0048601459711790085,0.39716407656669617,0.7390528321266174,7.46806526184082,0.33729445934295654,-0.21289554238319397,-0.012584889307618141,0.016160493716597557,0.008233251981437206,1.002730131149292,105.0628890991211,0.0,0.0,0.0
80157.082,0.10788553208112717,-0.07271822541952133,-0.002007091650739312,0.014127109199762344,0.010930584743618965,-0.0048601459711790085,0.39716407656669617,0.7390528321266174,7.46806526184082,0.0038751077372580767,0.026171203702688217,0.11023462563753128,0.016951560974121094,0.006445256061851978,1.0029493570327759,105.0628890991211,0.0,0.0,0.0
80161.054,0.10788553208112717,-0.07271822541952133,-0.002007091650739312,0.014127109199762344,0.010930584743618965,-0.0048601459711790085,0.39716407656669617,0.7390528321266174,7.46806526184082,-0.2596879303455353,0.037871960550546646,0.1288905143737793,0.01743016019463539,0.0051514566875994205,1.0021363496780396,105.0628890991211,0.0,0.0,0.0
80164.986,0.10802868753671646,-0.07260876148939133,-0.0020542992278933525,0.01450554933398962,0.01096099242568016,-0.004581241402775049,0.39734694361686707,0.7388437986373901,7.4614152908325195,-0.04276672750711441,-0.009757467545568943,-0.19519087672233582,0.017153650522232056,0.0057402001693844795,1.0018751621246338,105.0628890991211,0.0,0.0,0.0
80168.941,0.10802868753671646,-0.07260876148939133,-0.0020542992278933525,0.01450554933398962,0.01096099242568016,-0.004581241402775049,0.39734694361686707,0.7388437986373901,7.4614152908325195,-0.1718914955854416,0.2495923489332199,0.14205412566661835,0.017871832475066185,0.007803251501172781,1.0009316205978394,105.0628890991211,0.0,0.0,0.0
80172.942,0.10817601531744003,-0.07249900698661804,-0.002099303063005209,0.014962089248001575,0.010988164693117142,-0.004419382661581039,0.39570268988609314,0.7371609210968018,7.453938007354736,-0.10020344704389572,-0.1251976191997528,0.02621287852525711,0.0186790619045496,0.009608577005565166,1.0008288621902466,105.05194854736328,0.0,0.0,0.0
80176.846,0.10817601531744003,-0.07249900698661804,-0.002099303063005209,0.014962089248001575,0.010988164693117142,-0.004419382661581039,0.39570268988609314,0.7371609210968018,7.453938007354736,0.11542081832885742,-0.1998995840549469,0.13652755320072174,0.0185379795730114,0.011092305183410645,1.0011235475540161,105.05194854736328,0.0,0.0,0.0
80180.831,0.10817601531744003,-0.07249900698661804,-0.002099303063005209,0.014962089248001575,0.010988164693117142,-0.004419382661581039,0.39570268988609314,0.7371609210968018,7.453938007354736,0.21810267865657806,-0.14931991696357727,0.2760317921638489,0.016785504296422005,0.011148696765303612,1.0018404722213745,105.05194854736328,0.0,0.0,0.0
80184.759,0.10832799971103668,-0.0723869800567627,-0.0021428184118121862,0.015436537563800812,0.011415044777095318,-0.00428356509655714,0.396147221326828,0.7379138469696045,7.44784688949585,-0.15358386933803558,0.14889727532863617,0.016388457268476486,0.014455930329859257,0.010030913166701794,1.0014731884002686,105.05194854736328,0.0,0.0,0.0
80188.708,0.10832799971103668,-0.0723869800567627,-0.0021428184118121862,0.015436537563800812,0.011415044777095318,-0.00428356509655714,0.396147221326828,0.7379138469696045,7.44784688949585,-0.2287004441022873,0.18641726672649384,0.11579710245132446,0.013830386102199554,0.009738781489431858,1.0003687143325806,105.05194854736328,0.0,0.0,0.0
80192.716,0.10848293453454971,-0.07227123528718948,-0.0021850878838449717,0.015551292337477207,0.011732107028365135,-0.004170237574726343,0.39443764090538025,0.7361423373222351,7.4414191246032715,0.05184653401374817,-0.1595180481672287,0.12303948402404785,0.014419692568480968,0.009008266031742096,0.99949711561203,105.07382202148438,0.0,0.0,0.0
80196.629,0.10848293453454971,-0.07227123528718948,-0.0021850878838449717,0.015551292337477207,0.011732107028365135,-0.004170237574726343,0.39443764090538025,0.7361423373222351,7.4414191246032715,0.16086190938949585,-0.3116869330406189,-0.3118114471435547,0.015162217430770397,0.008974103257060051,0.9990729093551636,105.07382202148438,0.0,0.0,0.0
80200.589,0.10848293453454971,-0.07227123528718948,-0.0021850878838449717,0.015551292337477207,0.011732107028365135,-0.004170237574726343,0.39443764090538025,0.7361423373222351,7.4414191246032715,-0.055003125220537186,-0.18558084964752197,-0.06442227959632874,0.0146166468039155,0.009165547788143158,0.9988184571266174,105.07382202148438,0.0,0.0,0.0
80204.526,0.10863925516605377,-0.07215274125337601,-0.0022271319758147,0.015713714063167572,0.011964281089603901,-0.004238496534526348,0.39477598667144775,0.7376459240913391,7.432784080505371,0.21097706258296967,-0.022844454273581505,0.22923095524311066,0.014981269836425781,0.008790477178990841,0.9986310601234436,105.07382202148438,0.0,0.0,0.0
80208.476,0.10488869249820709,-0.07546298950910568,-0.0015245896065607667,-0.0071978080086410046,-0.007211307063698769,-0.0010821284959092736,0.5305814743041992,0.950595498085022,7.410801887512207,0.08843742311000824,-0.12189425528049469,-0.1263658106327057,0.015859732404351234,0.0081713255494833,0.9993571043014526,105.07382202148438,0.0,0.0,0.0
80212.477,0.10481617599725723,-0.07553552091121674,-0.0015357956290245056,-0.007307175546884537,-0.007293826434761286,-0.001158525119535625,0.5312631726264954,0.9506409168243408,7.4038896560668945,0.12409454584121704,-0.25575220584869385,0.2195940464735031,0.016981521621346474,0.007671347353607416,1.0010488033294678,105.07929229736328,0.0,0.0,0.0
80216.391,0.10481617599725723,-0.07553552091121674,-0.0015357956290245056,-0.007307175546884537,-0.007293826434761286,-0.001158525119535625,0.5312631726264954,0.9506409168243408,7.4038896560668945,0.2561599910259247,-0.3601226210594177,0.2646036744117737,0.017077766358852386,0.007524712476879358,1.0019725561141968,105.07929229736328,0.0,0.0,0.0
80220.356,0.10414376109838486,-0.07563013583421707,-0.003210234921425581,-0.01158254686743021,-0.007687839679419994,-0.010314123705029488,0.529950737953186,0.9888460040092468,7.392090320587158,-0.146297425031662,-0.15013866126537323,-0.005599907599389553,0.01626831665635109,0.007773980498313904,1.0017619132995605,105.07929229736328,0.0,0.0,0.0
80224.297,0.10402783751487732,-0.07570783793926239,-0.003312506712973118,-0.011603416875004768,-0.007850756868720055,-0.010139628313481808,0.5306168794631958,0.9906130433082581,7.386634826660156,0.2926476299762726,0.03922250494360924,-0.02195293828845024,0.01557114627212286,0.007360303308814764,1.0007972717285156,105.07929229736328,0.0,0.0,0.0
80228.247,0.10402783751487732,-0.07570783793926239,-0.003312506712973118,-0.011603416875004768,-0.007850756868720055,-0.010139628313481808,0.5306168794631958,0.9906130433082581,7.386634826660156,-0.03167577460408211,-0.045354414731264114,-0.060996003448963165,0.01609146036207676,0.006759054493159056,0.9994007349014282,105.07929229736328,0.0,0.0,0.0
80232.248,0.10391126573085785,-0.07578747719526291,-0.0034137004986405373,-0.011712719686329365,-0.008075385354459286,-0.010098430328071117,0.5308455228805542,0.9897177219390869,7.378641128540039,-0.21023133397102356,0.025470850989222527,-0.19622141122817993,0.016976529732346535,0.0061029489152133465,0.9985435009002686,105.041015625,0.0,0.0,0.0
80236.152,0.10391126573085785,-0.07578747719526291,-0.0034137004986405373,-0.011712719686329365,-0.008075385354459286,-0.010098430328071117,0.5308455228805542,0.9897177219390869,7.378641128540039,-0.05450097844004631,-0.12392418086528778,0.014754791744053364,0.01703255996108055,0.006290187127888203,0.9975597858428955,105.041015625,0.0,0.0,0.0
80240.115,0.10361167043447495,-0.0759875625371933,-0.00437217066064477,-0.013558236882090569,-0.009241926483809948,-0.015343699604272842,0.5393505692481995,1.0077203512191772,7.364815711975098,-0.1190497949719429,0.25492170453071594,-0.31916794180870056,0.01679748296737671,0.006560933776199818,0.9973123669624329,105.041015625,0.0,0.0,0.0
80244.062,0.10347599536180496,-0.0760815292596817,-0.004526597913354635,-0.013578678481280804,-0.009549528360366821,-0.015541010536253452,0.5377227663993835,1.0065277814865112,7.356276512145996,0.10284621268510818,-0.08632420003414154,-0.1040240228176117,0.016663745045661926,0.0071654124185442924,0.9982450604438782,105.041015625,0.0,0.0,0.0
80248.016,0.10232377052307129,-0.0771331638097763,-0.003321628784760833,-0.019705578684806824,-0.015543785877525806,-0.009507146663963795,0.5824795961380005,1.0646730661392212,7.316829681396484,0.050321727991104126,-0.19937042891979218,0.21112485229969025,0.01620342582464218,0.007428997661918402,0.9996603727340698,105.041015625,0.0,0.0,0.0
80252.012,0.1021258756518364,-0.07729016989469528,-0.003417214145883918,-0.01987569034099579,-0.015855420380830765,-0.009609009139239788,0.5823870301246643,1.0643723011016846,7.309375286102295,0.0206166859716177,0.04580989107489586,0.16160432994365692,0.015625588595867157,0.007488055154681206,1.0004478693008423,105.18318939208984,0.0,0.0,0.0
80255.925,0.1021258756518364,-0.07729016989469528,-0.003417214145883918,-0.01987569034099579,-0.015855420380830765,-0.009609009139239788,0.5823870301246643,1.0643723011016846,7.309375286102295,-0.053137026727199554,0.004532668273895979,0.018665801733732224,0.015371215529739857,0.008164730854332447,1.0009870529174805,105.18318939208984,0.0,0.0,0.0
80259.889,0.10217629373073578,-0.07748629152774811,-0.003798754420131445,-0.019702749326825142,-0.017084628343582153,-0.011768228374421597,0.5938787460327148,1.0644702911376953,7.301034927368164,0.3543913662433624,-0.1244947537779808,-0.20740006864070892,0.015788685530424118,0.008929341100156307,1.0008606910705566,105.18318939208984,0.0,0.0,0.0
80263.828,0.10197791457176208,-0.07765843719244003,-0.003915984649211168,-0.01997562311589718,-0.017341958358883858,-0.011676882393658161,0.5939964056015015,1.0632728338241577,7.29376220703125,0.23713679611682892,-0.08660881966352463,-0.0382167249917984,0.01638616807758808,0.009859779849648476,1.0010958909988403,105.18318939208984,0.0,0.0,0.0
80267.78,0.10145697742700577,-0.07795049250125885,-0.0032122028060257435,-0.022072335705161095,-0.018918950110673904,-0.007965918630361557,0.6052853465080261,1.082419753074646,7.257418632507324,0.17545482516288757,-0.2952885329723358,-0.37008145451545715,0.016508223488926888,0.008929960429668427,1.0018632411956787,105.18318939208984,0.0,0.0,0.0
80271.778,0.10123509168624878,-0.07814046740531921,-0.0032910658046603203,-0.022307060658931732,-0.019073691219091415,-0.007805658038705587,0.6070558428764343,1.0832042694091797,7.248361110687256,0.037373755127191544,-0.20344361662864685,0.06811383366584778,0.01635177619755268,0.00812515802681446,1.0027626752853394,105.1777114868164,0.0,0.0,0.0
80275.689,0.10123509168624878,-0.07814046740531921,-0.0032910658046603203,-0.022307060658931732,-0.019073691219091415,-0.007805658038705587,0.6070558428764343,1.0832042694091797,7.248361110687256,-0.055920347571372986,-0.10454443097114563,0.1662392020225525,0.016577940434217453,0.008252169005572796,1.0026363134384155,105.1777114868164,0.0,0.0,0.0
80279.654,0.10145933926105499,-0.07836681604385376,-0.0034138690680265427,-0.02153765596449375,-0.020528143271803856,-0.008645732887089252,0.621059000492096,1.0780330896377563,7.25295877456665,-0.10962635278701782,-0.32395488023757935,-0.07159116119146347,0.015531595796346664,0.008367047645151615,1.0012544393539429,105.1777114868164,0.0,0.0,0.0
80283.596,0.10124286264181137,-0.07857352495193481,-0.003499067621305585,-0.02176031842827797,-0.020811233669519424,-0.008392946794629097,0.6200538277626038,1.0787345170974731,7.246570587158203,-0.08339351415634155,-0.3155362010002136,-0.07405998557806015,0.01562379952520132,0.007720734924077988,0.9999102354049683,105.1777114868164,0.0,0.0,0.0
80287.555,0.10418502241373062,-0.07667079567909241,-0.003476169891655445,-0.010528960265219212,-0.008484132587909698,-0.006257275119423866,0.5220380425453186,0.9632826447486877,7.275740623474121,-0.16850416362285614,0.25560319423675537,0.13629722595214844,0.016742758452892303,0.007692176382988691,0.9999623894691467,105.1777114868164,0.0,0.0,0.0
80291.556,0.1040794625878334,-0.0767563134431839,-0.0035386341623961926,-0.010583627037703991,-0.008617705665528774,-0.006234919186681509,0.5204614400863647,0.9629215002059937,7.268342971801758,0.04929817095398903,0.3894110321998596,-0.16104742884635925,0.017016395926475525,0.008313138037919998,0.9998601078987122,105.14490509033203,0.0,0.0,0.0
80295.463,0.1040794625878334,-0.0767563134431839,-0.0035386341623961926,-0.010583627037703991,-0.008617705665528774,-0.006234919186681509,0.5204614400863647,0.9629215002059937,7.268342971801758,0.05926189944148064,-0.1712784469127655,-0.1331133246421814,0.01637546718120575,0.009758532978594303,0.9998121857643127,105.14490509033203,0.0,0.0,0.0
80299.424,0.1040794625878334,-0.0767563134431839,-0.0035386341623961926,-0.010583627037703991,-0.008617705665528774,-0.006234919186681509,0.5204614400863647,0.9629215002059937,7.268342971801758,0.04092826321721077,0.1298426389694214,-0.3034772276878357,0.016277510672807693,0.009613691829144955,0.9997841715812683,105.14490509033203,0.0,0.0,0.0
80303.365,0.10397350043058395,-0.07684242725372314,-0.003600979456678033,-0.01060996763408184,-0.008603446185588837,-0.00623348681256175,0.5206177830696106,0.9609556794166565,7.259367942810059,0.06852391362190247,-0.009687400422990322,-0.21521012485027313,0.01610126532614231,0.00940406508743763,0.9991496801376343,105.14490509033203,0.0,0.0,0.0
80307.32,0.10532797873020172,-0.07629033923149109,-0.0026884591206908226,-0.004081026650965214,-0.004962015897035599,7.246234599733725e-05,0.49332863092422485,0.8966384530067444,7.271369457244873,-0.10513890534639359,0.1050109714269638,0.10024082660675049,0.01622333750128746,0.009480135515332222,0.9994867444038391,105.14490509033203,0.0,0.0,0.0
80311.319,0.10528739541769028,-0.07633952051401138,-0.002687933621928096,-0.004036791622638702,-0.004873546306043863,3.3113439712906256e-05,0.4928768277168274,0.8950142860412598,7.263071537017822,0.007429726887494326,0.17660023272037506,-0.019608207046985626,0.016837438568472862,0.009135964326560497,1.0002094507217407,105.15583801269531,0.0,0.0,0.0
80315.227,0.10528739541769028,-0.07633952051401138,-0.002687933621928096,-0.004036791622638702,-0.004873546306043863,3.3113439712906256e-05,0.4928768277168274,0.8950142860412598,7.263071537017822,0.055667344480752945,-0.016009431332349777,0.053397294133901596,0.01732988841831684,0.008517606183886528,1.0005342960357666,105.15583801269531,0.0,0.0,0.0
80319.193,0.10528739541769028,-0.07633952051401138,-0.002687933621928096,-0.004036791622638702,-0.004873546306043863,3.3113439712906256e-05,0.4928768277168274,0.8950142860412598,7.263071537017822,-0.14444631338119507,0.11129044741392136,0.15286682546138763,0.017675532028079033,0.007906773127615452,1.0003118515014648,105.15583801269531,0.0,0.0,0.0
80323.141,0.10524781793355942,-0.0763881579041481,-0.0026873168535530567,-0.003879938740283251,-0.004852768499404192,9.074234549188986e-05,0.49242907762527466,0.8932132720947266,7.256476402282715,-0.06982974708080292,-0.369159996509552,-0.11411439627408981,0.016697077080607414,0.00741402106359601,0.9991146326065063,105.15583801269531,0.0,0.0,0.0
80327.093,0.10524781793355942,-0.0763881579041481,-0.0026873168535530567,-0.003879938740283251,-0.004852768499404192,9.074234549188986e-05,0.49242907762527466,0.8932132720947266,7.256476402282715,0.02927427738904953,-0.1778283417224884,-0.05447577312588692,0.014806950464844704,0.007830443792045116,0.9982000589370728,105.15583801269531,0.0,0.0,0.0
80331.084,0.10520924627780914,-0.07643711566925049,-0.0026869026478379965,-0.0038348445668816566,-0.004937604069709778,-7.424166142300237e-06,0.49146875739097595,0.8942514657974243,7.248651504516602,-0.10325413942337036,0.07094132900238037,0.12795813381671906,0.013677245005965233,0.008101913146674633,0.9980670213699341,105.11756896972656,0.0,0.0,0.0
80334.995,0.10520924627780914,-0.07643711566925049,-0.0026869026478379965,-0.0038348445668816566,-0.004937604069709778,-7.424166142300237e-06,0.49146875739097595,0.8942514657974243,7.248651504516602,-0.11294229328632355,0.0021817011293023825,0.26029735803604126,0.014095752499997616,0.0084129823371768,0.9984257817268372,105.11756896972656,0.0,0.0,0.0
80338.961,0.10520924627780914,-0.07643711566925049,-0.0026869026478379965,-0.0038348445668816566,-0.004937604069709778,-7.424166142300237e-06,0.49146875739097595,0.8942514657974243,7.248651504516602,-0.23642656207084656,0.17083826661109924,-0.2820010483264923,0.014617889188230038,0.008952364325523376,0.9994966983795166,105.11756896972656,0.0,0.0,0.0
80342.9,0.10517016798257828,-0.07648666948080063,-0.002687634900212288,-0.003981835208833218,-0.0049721309915184975,-0.00013852918345946819,0.4896165430545807,0.8926343321800232,7.242414474487305,0.08453617990016937,-0.06235695630311966,-0.24653880298137665,0.015500832349061966,0.010270743630826473,1.0005139112472534,105.11756896972656,0.0,0.0,0.0
80346.859,0.10823705792427063,-0.07531794905662537,-0.002233604434877634,0.014285837300121784,0.003436694387346506,0.0033291045110672712,0.43222692608833313,0.7235742211341858,7.281683921813965,0.08352453261613846,0.22763708233833313,0.19495239853858948,0.0162397101521492,0.01016908884048462,1.001110553741455,105.11756896972656,0.0,0.0,0.0
80350.853,0.1083812341094017,-0.07528217881917953,-0.0021998933516442776,0.014549368992447853,0.0037158948834985495,0.00341327884234488,0.43201011419296265,0.7219473719596863,7.2735209465026855,-0.20947232842445374,0.022671686485409737,-0.1132989451289177,0.015017080120742321,0.009918258525431156,1.0016343593597412,105.06835174560547,0.0,0.0,0.0
80354.765,0.1083812341094017,-0.07528217881917953,-0.0021998933516442776,0.014549368992447853,0.0037158948834985495,0.00341327884234488,0.43201011419296265,0.7219473719596863,7.2735209465026855,0.14208722114562988,0.2254650890827179,0.224212184548378,0.015230987221002579,0.00876200944185257,1.001317024230957,105.06835174560547,0.0,0.0,0.0
80358.731,0.1083812341094017,-0.07528217881917953,-0.0021998933516442776,0.014549368992447853,0.0037158948834985495,0.00341327884234488,0.43201011419296265,0.7219473719596863,7.2735209465026855,0.032059621065855026,0.6217446327209473,0.20609964430332184,0.014653760939836502,0.0070723071694374084,1.000441074371338,105.06835174560547,0.0,0.0,0.0
80362.672,0.10852783173322678,-0.07524426281452179,-0.002165088662877679,0.014771118760108948,0.0038652000948786736,0.0035478456411510706,0.43165868520736694,0.7186383605003357,7.267413139343262,-0.104267917573452,0.15706199407577515,-0.09228876978158951,0.013753932900726795,0.006681698374450207,1.0005204677581787,105.06835174560547,0.0,0.0,0.0
80366.629,0.10630697757005692,-0.07632612437009811,-0.0014525215374305844,-0.0016667130403220654,-0.004170525353401899,0.008054777979850769,0.4861200153827667,0.8686309456825256,7.240838527679443,0.09561898559331894,0.024887407198548317,0.008954889141023159,0.013501383364200592,0.007799789775162935,1.0008171796798706,105.06835174560547,0.0,0.0,0.0
80370.633,0.10628969967365265,-0.07636851817369461,-0.0013716081157326698,-0.001788887195289135,-0.004308517090976238,0.008128359913825989,0.4855974614620209,0.8662015199661255,7.233382701873779,0.12190805375576019,0.08869212120771408,-0.23668624460697174,0.014224480837583542,0.00856071338057518,1.0007094144821167,105.041015625,0.0,0.0,0.0
80374.543,0.10628969967365265,-0.07636851817369461,-0.0013716081157326698,-0.001788887195289135,-0.004308517090976238,0.008128359913825989,0.4855974614620209,0.8662015199661255,7.233382701873779,0.06006120145320892,0.3225380480289459,0.05760517343878746,0.016037581488490105,0.008242440409958363,1.0002976655960083,105.041015625,0.0,0.0,0.0
80378.502,0.10628969967365265,-0.07636851817369461,-0.0013716081157326698,-0.001788887195289135,-0.004308517090976238,0.008128359913825989,0.4855974614620209,0.8662015199661255,7.233382701873779,-0.052032314240932465,0.09840073436498642,0.02416308969259262,0.01648562029004097,0.0072405715472996235,1.0003979206085205,105.041015625,0.0,0.0,0.0
80382.443,0.10627203434705734,-0.07641175389289856,-0.001290014828555286,-0.0017445498378947377,-0.004337633494287729,0.008190743625164032,0.48577043414115906,0.8632450699806213,7.225680828094482,0.03661142289638519,-0.30756184458732605,-0.25505924224853516,0.016433997079730034,0.006082742474973202,1.0005452632904053,105.041015625,0.0,0.0,0.0
80386.392,0.10627203434705734,-0.07641175389289856,-0.001290014828555286,-0.0017445498378947377,-0.004337633494287729,0.008190743625164032,0.48577043414115906,0.8632450699806213,7.225680828094482,0.10448665171861649,-0.3380165100097656,0.17603959143161774,0.0162573903799057,0.0061088260263204575,1.0004931688308716,105.041015625,0.0,0.0,0.0
80390.385,0.10625532269477844,-0.07645612955093384,-0.0012077707797288895,-0.0015976947033777833,-0.004537224769592285,0.008258529007434845,0.4858682453632355,0.864901602268219,7.218145370483398,0.09715227037668228,0.09028574079275131,0.03627559542655945,0.015493880957365036,0.006964624859392643,1.0016508102416992,105.05194854736328,0.0,0.0,0.0
80394.305,0.10625532269477844,-0.07645612955093384,-0.0012077707797288895,-0.0015976947033777833,-0.004537224769592285,0.008258529007434845,0.4858682453632355,0.864901602268219,7.218145370483398,0.023673292249441147,-0.23709876835346222,-0.06184124946594238,0.015176280401647091,0.008151539601385593,1.002948522567749,105.05194854736328,0.0,0.0,0.0
80398.262,0.10625532269477844,-0.07645612955093384,-0.0012077707797288895,-0.0015976947033777833,-0.004537224769592285,0.008258529007434845,0.4858682453632355,0.864901602268219,7.218145370483398,-0.03612957522273064,-0.3385457992553711,0.07248622179031372,0.016189532354474068,0.008389352820813656,1.0037841796875,105.05194854736328,0.0,0.0,0.0
80402.205,0.10623955726623535,-0.07650181651115417,-0.001123787253163755,-0.0015565495705232024,-0.0045998613350093365,0.008538658730685711,0.4856685698032379,0.8654516339302063,7.210941314697266,-0.07868410646915436,-0.08827946335077286,-0.03252563625574112,0.017480669543147087,0.007867930456995964,1.003495216369629,105.05194854736328,0.0,0.0,0.0
80406.16,0.10913728177547455,-0.07515012472867966,-0.0007005991647019982,0.022269150242209435,0.00607941672205925,0.011108807288110256,0.4142915606498718,0.6521168351173401,7.255398750305176,0.05010414868593216,0.24432681500911713,-0.059981927275657654,0.01649356819689274,0.007441735826432705,1.0016694068908691,105.05194854736328,0.0,0.0,0.0
80410.157,0.10721521824598312,-0.07623159885406494,-7.50432227505371e-05,0.006019835826009512,-0.0020157850813120604,0.014476814307272434,0.4685421586036682,0.7996246218681335,7.237710952758789,0.04660370200872421,-0.03947540372610092,-0.12494662404060364,0.015449494123458862,0.007811243645846844,1.0003602504730225,104.99726867675781,0.0,0.0,0.0
80414.067,0.10721521824598312,-0.07623159885406494,-7.50432227505371e-05,0.006019835826009512,-0.0020157850813120604,0.014476814307272434,0.4685421586036682,0.7996246218681335,7.237710952758789,0.055571138858795166,-0.2750471532344818,-0.09602941572666168,0.01591384783387184,0.007811869960278273,1.0000721216201782,104.99726867675781,0.0,0.0,0.0
80418.036,0.10721521824598312,-0.07623159885406494,-7.50432227505371e-05,0.006019835826009512,-0.0020157850813120604,0.014476814307272434,0.4685421586036682,0.7996246218681335,7.237710952758789,0.24504999816417694,-0.18790479004383087,0.272963285446167,0.015957104042172432,0.007761326152831316,0.9992430806159973,104.99726867675781,0.0,0.0,0.0
80421.974,0.1072763204574585,-0.07625182718038559,6.978453893680125e-05,0.0062002879567444324,-0.0020310143008828163,0.014489076100289822,0.4691337049007416,0.8006766438484192,7.230280876159668,0.33018404245376587,-0.08753159642219543,-0.009589794091880322,0.015830406919121742,0.00782882608473301,0.9991862177848816,104.99726867675781,0.0,0.0,0.0
80425.932,0.1072763204574585,-0.07625182718038559,6.978453893680125e-05,0.0062002879567444324,-0.0020310143008828163,0.014489076100289822,0.4691337049007416,0.8006766438484192,7.230280876159668,-0.03308624401688576,0.24019913375377655,0.0004449061816558242,0.014955921098589897,0.006719648838043213,0.9992942214012146,104.99726867675781,0.0,0.0,0.0
80429.925,0.1072763204574585,-0.07625182718038559,6.978453893680125e-05,0.0062002879567444324,-0.0020310143008828163,0.014489076100289822,0.4691337049007416,0.8006766438484192,7.230280876159668,-0.06415773183107376,0.17358332872390747,0.11339114606380463,0.01476908940821886,0.006741801742464304,0.999703586101532,104.95352172851562,0.0,0.0,0.0
80433.834,0.10587428510189056,-0.07524340599775314,0.0013240360422059894,-0.003561025718227029,0.0032716933637857437,0.02152145467698574,0.4149262309074402,0.8750157952308655,7.281277656555176,-0.06574451178312302,-0.005469454452395439,0.0026486252900213003,0.015144748613238335,0.007480385713279247,0.9992373585700989,104.95352172851562,0.0,0.0,0.0
80437.807,0.10587428510189056,-0.07524340599775314,0.0013240360422059894,-0.003561025718227029,0.0032716933637857437,0.02152145467698574,0.4149262309074402,0.8750157952308655,7.281277656555176,-0.06022486463189125,-0.11822863668203354,-0.27086108922958374,0.015535537153482437,0.008758497424423695,0.9992341995239258,104.95352172851562,0.0,0.0,0.0
80441.75,0.10820424556732178,-0.07344689220190048,0.002210635459050536,0.013546698726713657,0.015818417072296143,0.025205327197909355,0.32126888632774353,0.7142592668533325,7.309657096862793,-0.03662879019975662,-0.006078924052417278,-0.07894256711006165,0.015637610107660294,0.009474883787333965,1.001391887664795,104.95352172851562,0.0,0.0,0.0
80445.7,0.10820424556732178,-0.07344689220190048,0.002210635459050536,0.013546698726713657,0.015818417072296143,0.025205327197909355,0.32126888632774353,0.7142592668533325,7.309657096862793,-0.04508581757545471,-0.06321625411510468,-0.11366327852010727,0.015114459209144115,0.009608532302081585,1.0020478963851929,104.95352172851562,0.0,0.0,0.0
80449.7,0.10834090411663055,-0.07328668236732483,0.0024634492583572865,0.013786855153739452,0.016222605481743813,0.025357572361826897,0.32059192657470703,0.7139484882354736,7.301115036010742,0.07521828263998032,0.07951182126998901,-0.14171303808689117,0.015079973265528679,0.008455799892544746,1.0016202926635742,105.0191421508789,0.0,0.0,0.0
80453.604,0.10834090411663055,-0.07328668236732483,0.0024634492583572865,0.013786855153739452,0.016222605481743813,0.025357572361826897,0.32059192657470703,0.7139484882354736,7.301115036010742,0.0890582948923111,-0.26954659819602966,0.00533664133399725,0.014554915949702263,0.007805101107805967,1.000648856163025,105.0191421508789,0.0,0.0,0.0
80457.574,0.10834090411663055,-0.07328668236732483,0.0024634492583572865,0.013786855153739452,0.016222605481743813,0.025357572361826897,0.32059192657470703,0.7139484882354736,7.301115036010742,-0.026050563901662827,-0.3400980532169342,0.1630248725414276,0.014196058735251427,0.007506791967898607,0.999815046787262,105.0191421508789,0.0,0.0,0.0
80461.512,0.10847969353199005,-0.07312317192554474,0.0027174900751560926,0.013972840271890163,0.016478054225444794,0.025450732558965683,0.32094284892082214,0.7150474786758423,7.293825626373291,-0.12193645536899567,0.2839384973049164,0.20273086428642273,0.013972576707601547,0.007516421843320131,0.9993477463722229,105.0191421508789,0.0,0.0,0.0
80465.465,0.10847969353199005,-0.07312317192554474,0.0027174900751560926,0.013972840271890163,0.016478054225444794,0.025450732558965683,0.32094284892082214,0.7150474786758423,7.293825626373291,0.07918659597635269,0.0836305245757103,-0.11071428656578064,0.014512980356812477,0.007871597073972225,0.9995114803314209,105.0191421508789,0.0,0.0,0.0
80469.461,0.10862015187740326,-0.07295724004507065,0.002971797715872526,0.014121602289378643,0.016707133501768112,0.025410901755094528,0.3203374743461609,0.7133574485778809,7.287105560302734,0.04557621106505394,0.004752055741846561,0.20564192533493042,0.015009189955890179,0.009498733095824718,0.9999030828475952,104.97539520263672,0.0,0.0,0.0
80473.376,0.10862015187740326,-0.07295724004507065,0.002971797715872526,0.014121602289378643,0.016707133501768112,0.025410901755094528,0.3203374743461609,0.7133574485778809,7.287105560302734,0.20733466744422913,0.06743516772985458,0.3160018026828766,0.014791949652135372,0.009593330323696136,1.0009740591049194,104.97539520263672,0.0,0.0,0.0
80477.343,0.10862015187740326,-0.07295724004507065,0.002971797715872526,0.014121602289378643,0.016707133501768112,0.025410901755094528,0.3203374743461609,0.7133574485778809,7.287105560302734,0.1348085254430771,-0.21178530156612396,-0.028628448024392128,0.015070846304297447,0.00878068245947361,1.0015099048614502,104.97539520263672,0.0,0.0,0.0
80481.278,0.10876232385635376,-0.07278817892074585,0.0032263328321278095,0.014314516447484493,0.017103685066103935,0.025496244430541992,0.32147249579429626,0.7128072381019592,7.281850337982178,0.10788022726774216,-0.03289363533258438,0.13322052359580994,0.016342945396900177,0.008067304268479347,1.0014029741287231,104.97539520263672,0.0,0.0,0.0
80485.233,0.10876232385635376,-0.07278817892074585,0.0032263328321278095,0.014314516447484493,0.017103685066103935,0.025496244430541992,0.32147249579429626,0.7128072381019592,7.281850337982178,-0.22692038118839264,0.2534137964248657,-0.15833695232868195,0.017039282247424126,0.008445022627711296,1.0006811618804932,104.97539520263672,0.0,0.0,0.0
80489.232,0.10593880712985992,-0.07542210817337036,0.002239540684968233,-0.005317994859069586,-0.00015724041440989822,0.019760599359869957,0.4511640667915344,0.8984788060188293,7.251895904541016,0.001108958967961371,0.24129490554332733,-0.06115007400512695,0.017500972375273705,0.009373574517667294,0.9994789361953735,105.013671875,0.0,0.0,0.0
80493.144,0.10593880712985992,-0.07542210817337036,0.002239540684968233,-0.005317994859069586,-0.00015724041440989822,0.019760599359869957,0.4511640667915344,0.8984788060188293,7.251895904541016,-0.09490489214658737,-0.04061577469110489,-0.17444507777690887,0.016285836696624756,0.008652874268591404,0.9992480278015137,105.013671875,0.0,0.0,0.0
80497.114,0.10593880712985992,-0.07542210817337036,0.002239540684968233,-0.005317994859069586,-0.00015724041440989822,0.019760599359869957,0.4511640667915344,0.8984788060188293,7.251895904541016,-0.13534396886825562,-0.48755624890327454,-0.19903622567653656,0.014724234119057655,0.007504641078412533,0.9992536306381226,105.013671875,0.0,0.0,0.0
80501.043,0.10593880712985992,-0.07542210817337036,0.002239540684968233,-0.005317994859069586,-0.00015724041440989822,0.019760599359869957,0.4511640667915344,0.8984788060188293,7.251895904541016,-0.08658654987812042,-0.16916793584823608,0.06179621070623398,0.013697008602321148,0.007605352438986301,0.9986638426780701,105.013671875,0.0,0.0,0.0
80505.003,0.10833196341991425,-0.07374922931194305,0.002725542290136218,0.012213454581797123,0.011198749765753746,0.020550332963466644,0.36905941367149353,0.7372264862060547,7.286598205566406,0.023787211626768112,-0.08254420757293701,-0.04257446900010109,0.013789156451821327,0.00842395517975092,0.9980475902557373,105.013671875,0.0,0.0,0.0
80509.003,0.10845451056957245,-0.07363642007112503,0.002930347342044115,0.012297019362449646,0.011361880227923393,0.020410824567079544,0.36820146441459656,0.7383144497871399,7.2792277336120605,-0.06658455729484558,-0.12863029539585114,-0.06886127591133118,0.014572887681424618,0.009159460663795471,0.9979404807090759,104.99726867675781,0.0,0.0,0.0
80512.91,0.10845451056957245,-0.07363642007112503,0.002930347342044115,0.012297019362449646,0.011361880227923393,0.020410824567079544,0.36820146441459656,0.7383144497871399,7.2792277336120605,0.109052374958992,-0.14093071222305298,-0.13597454130649567,0.01496104709804058,0.009716732427477837,0.9985400438308716,104.99726867675781,0.0,0.0,0.0
80516.881,0.10845451056957245,-0.07363642007112503,0.002930347342044115,0.012297019362449646,0.011361880227923393,0.020410824567079544,0.36820146441459656,0.7383144497871399,7.2792277336120605,0.19223958253860474,-0.2338012456893921,0.14333266019821167,0.0142514044418931,0.009777044877409935,0.9989451766014099,104.99726867675781,0.0,0.0,0.0
80520.811,0.10857817530632019,-0.07352117449045181,0.00313376123085618,0.012436995282769203,0.011685117147862911,0.020272117108106613,0.36855489015579224,0.739120602607727,7.2713422775268555,0.23961222171783447,0.015511532314121723,0.27237212657928467,0.013637782074511051,0.010201895609498024,0.9987338781356812,104.99726867675781,0.0,0.0,0.0
80524.767,0.10857817530632019,-0.07352117449045181,0.00313376123085618,0.012436995282769203,0.011685117147862911,0.020272117108106613,0.36855489015579224,0.739120602607727,7.2713422775268555,0.12042850255966187,0.025375090539455414,0.06000133976340294,0.013359636068344116,0.009448283351957798,0.9997972249984741,104.99726867675781,0.0,0.0,0.0
80528.775,0.10654141753911972,-0.07562103867530823,0.002537852618843317,-0.003278034273535013,-0.0017334823496639729,0.016803821548819542,0.47174784541130066,0.8864660263061523,7.246499061584473,-0.05583374574780464,0.2097264528274536,-0.0501992329955101,0.013625161722302437,0.008810312487185001,0.9998135566711426,105.05194854736328,0.0,0.0,0.0
80532.68,0.10654141753911972,-0.07562103867530823,0.002537852618843317,-0.003278034273535013,-0.0017334823496639729,0.016803821548819542,0.47174784541130066,0.8864660263061523,7.246499061584473,-0.1939026266336441,0.155437171459198,0.2208666056394577,0.014143980108201504,0.009353767149150372,0.9992566704750061,105.05194854736328,0.0,0.0,0.0
80536.649,0.10654141753911972,-0.07562103867530823,0.002537852618843317,-0.003278034273535013,-0.0017334823496639729,0.016803821548819542,0.47174784541130066,0.8864660263061523,7.246499061584473,0.14406970143318176,-0.08624085038900375,0.2430042326450348,0.014415066689252853,0.008725170977413654,0.9993173480033875,105.05194854736328,0.0,0.0,0.0
80540.58,0.10650787502527237,-0.0756380707025528,0.0027056909166276455,-0.0034298549871891737,-0.001672811689786613,0.016764335334300995,0.47066569328308105,0.8842992782592773,7.240718364715576,0.08839879930019379,-0.05783058702945709,-0.1825854480266571,0.015194171108305454,0.008395257405936718,0.9991716146469116,105.05194854736328,0.0,0.0,0.0
80544.541,0.10650787502527237,-0.0756380707025528,0.0027056909166276455,-0.0034298549871891737,-0.001672811689786613,0.016764335334300995,0.47066569328308105,0.8842992782592773,7.240718364715576,0.046611227095127106,-0.07523009181022644,-0.024188734591007233,0.015613224357366562,0.00848799291998148,0.999627411365509,105.05194854736328,0.0,0.0,0.0
80548.538,0.10650787502527237,-0.0756380707025528,0.0027056909166276455,-0.0034298549871891737,-0.001672811689786613,0.016764335334300995,0.47066569328308105,0.8842992782592773,7.240718364715576,0.011499605141580105,-0.044321395456790924,-0.15922309458255768,0.015856467187404633,0.008770396932959557,1.000048041343689,104.95899200439453,0.0,0.0,0.0
80552.445,0.10562870651483536,-0.07507650554180145,0.0035316478461027145,-0.008755341172218323,0.0012660154607146978,0.020384563133120537,0.4413082003593445,0.9247403144836426,7.292178630828857,-0.05136799067258835,-0.015521692112088203,0.0723983496427536,0.015337657183408737,0.008158541284501553,1.000534176826477,104.95899200439453,0.0,0.0,0.0
80556.418,0.10562870651483536,-0.07507650554180145,0.0035316478461027145,-0.008755341172218323,0.0012660154607146978,0.020384563133120537,0.4413082003593445,0.9247403144836426,7.292178630828857,0.0026924707926809788,0.08085592091083527,0.2595277726650238,0.014634097926318645,0.00793960876762867,1.0009353160858154,104.95899200439453,0.0,0.0,0.0
80560.348,0.10554073005914688,-0.07506359368562698,0.003735792823135853,-0.008838851004838943,0.001317148213274777,0.020444918423891068,0.44072988629341125,0.923854649066925,7.285213470458984,-0.0893351286649704,0.08039899915456772,0.13685113191604614,0.013935661874711514,0.007578982971608639,1.0014516115188599,104.95899200439453,0.0,0.0,0.0
80564.303,0.10554073005914688,-0.07506359368562698,0.003735792823135853,-0.008838851004838943,0.001317148213274777,0.020444918423891068,0.44072988629341125,0.923854649066925,7.285213470458984,-0.2895258665084839,0.2506045997142792,0.24096763134002686,0.014623633585870266,0.007752891164273024,1.001698613166809,104.95899200439453,0.0,0.0,0.0
80568.305,0.10545145720243454,-0.07505052536725998,0.003941054455935955,-0.009015010669827461,0.0012978058075532317,0.020607978105545044,0.4387383759021759,0.9215051531791687,7.279839992523193,-0.04557940363883972,-0.0037849503569304943,0.008636528626084328,0.014600723050534725,0.008213651366531849,1.002338171005249,104.96993255615234,0.0,0.0,0.0
80572.212,0.10545145720243454,-0.07505052536725998,0.003941054455935955,-0.009015010669827461,0.0012978058075532317,0.020607978105545044,0.4387383759021759,0.9215051531791687,7.279839992523193,0.24833524227142334,-0.3018764853477478,0.3288338780403137,0.014259925112128258,0.00848433654755354,1.0018267631530762,104.96993255615234,0.0,0.0,0.0
80576.19,0.10545145720243454,-0.07505052536725998,0.003941054455935955,-0.009015010669827461,0.0012978058075532317,0.020607978105545044,0.4387383759021759,0.9215051531791687,7.279839992523193,-0.0032610446214675903,0.09787724167108536,-0.19134150445461273,0.014079076237976551,0.00897102802991867,1.0012991428375244,104.96993255615234,0.0,0.0,0.0
80580.113,0.10536038875579834,-0.07503725588321686,0.0041481307707726955,-0.009198404848575592,0.0013571036979556084,0.02080780640244484,0.4393688440322876,0.92174232006073,7.273683071136475,-0.1320110410451889,-0.04415908455848694,-0.10002393275499344,0.01447751559317112,0.009535000659525394,0.9998800158500671,104.96993255615234,0.0,0.0,0.0
80584.075,0.10536038875579834,-0.07503725588321686,0.0041481307707726955,-0.009198404848575592,0.0013571036979556084,0.02080780640244484,0.4393688440322876,0.92174232006073,7.273683071136475,0.0451895110309124,-0.23644483089447021,0.06834249943494797,0.014531860128045082,0.0094624487683177,0.998600959777832,104.96993255615234,0.0,0.0,0.0
80588.078,0.1052674874663353,-0.07502295821905136,0.004356015473604202,-0.009380817413330078,0.0015044520841911435,0.020769648253917694,0.43852341175079346,0.921676754951477,7.265952110290527,0.12896668910980225,-0.23616963624954224,0.2562035918235779,0.014021000824868679,0.008008372038602829,0.9977062344551086,105.06835174560547,0.0,0.0,0.0
80591.981,0.1052674874663353,-0.07502295821905136,0.004356015473604202,-0.009380817413330078,0.0015044520841911435,0.020769648253917694,0.43852341175079346,0.921676754951477,7.265952110290527,0.16604404151439667,-0.05597475543618202,-0.13850978016853333,0.013813335448503494,0.0073867845349013805,0.9973861575126648,105.06835174560547,0.0,0.0,0.0
80595.954,0.1052674874663353,-0.07502295821905136,0.004356015473604202,-0.009380817413330078,0.0015044520841911435,0.020769648253917694,0.43852341175079346,0.921676754951477,7.265952110290527,-0.0394316203892231,0.28343313932418823,-0.2129364311695099,0.012857542373239994,0.008353644981980324,0.9982381463050842,105.06835174560547,0.0,0.0,0.0
80599.883,0.10826002061367035,-0.07211021333932877,0.005102675408124924,0.010384531691670418,0.018433764576911926,0.021852150559425354,0.31632205843925476,0.7342099547386169,7.297872543334961,-0.11417686939239502,0.07773531228303909,-0.15177632868289948,0.012602977454662323,0.008860140107572079,0.9993863105773926,105.06835174560547,0.0,0.0,0.0
80603.842,0.10826002061367035,-0.07211021333932877,0.005102675408124924,0.010384531691670418,0.018433764576911926,0.021852150559425354,0.31632205843925476,0.7342099547386169,7.297872543334961,0.07261072844266891,-0.012313404120504856,-0.028601014986634254,0.013649646192789078,0.008750039152801037,0.9995444416999817,105.06835174560547,0.0,0.0,0.0
